location_id,institution,normalized_institution,city,region,country,country_code,lat,lon,coordinate_source,coordinate_source_url,coordinate_status,review_note,created_at,updated_at,created_by
location:2e73bb336e7ad920a7c2,Complutense University of Madrid,complutense university of madrid,Madrid,Community of Madrid,Spain,ES,40.449167,-3.728056,Wikipedia / Wikidata,https://en.wikipedia.org/wiki/Complutense_University_of_Madrid,known,Coordinates manually confirmed from the Wikipedia/Wikidata entry for Complutense University of Madrid; used as the institution-level campus coordinate for map visualization.,2026-06-29T19:32:42Z,2026-06-29T19:32:53Z,local-admin
location:91aeee1163fdce71a822,"Agency for Science, Technology and Research (A*STAR)",a star,Singapore,Singapore,Singapore,SG,1.2996,103.7886,Official institution page + map coordinate check,https://www.a-star.edu.sg/contact-us,known,"Coordinates manually checked for A*STAR headquarters at 2 Fusionopolis Way, Innovis #08-01, Singapore 138634, and used as the institution-level coordinate for map visualization.",2026-06-29T19:50:55Z,2026-06-29T19:50:55Z,local-admin
location:3e2d6c20e9d268da465d,Hanyang University,hanyang university,Seoul,Seoul,South Korea,KR,37.5572,127.0453,Official institution page + map coordinate check,https://www.hanyang.ac.kr/web/eng/map_seoul,known,"Coordinates manually checked for Hanyang University Seoul Campus at 222 Wangsimni-ro, Seongdong-gu, Seoul 04763, Republic of Korea, and used as the institution-level coordinate for map visualization.",2026-06-29T20:12:59Z,2026-06-29T20:12:59Z,local-admin
location:6e61f1cad147c313e93f,"Yonsei University, International Campus",yonsei university international campus,Incheon,Incheon,South Korea,KR,37.3839,126.6708,Official institution page + map coordinate check,https://www.yonsei.ac.kr/en_sc/1835/subview.do,known,"Coordinates manually checked for Yonsei University International Campus at 85 Songdogwahak-ro, Yeonsu-gu, Incheon 21983, Republic of Korea, and used as the institution-level coordinate for map visualization.",2026-06-29T20:16:40Z,2026-06-29T20:16:40Z,local-admin
location:42992b97b8e05dd487c8,"Yonsei University, Sinchon Campus",yonsei university sinchon campus,Seoul,Seoul,South Korea,KR,37.5658,126.9386,Official institution page + map coordinate check,https://www.yonsei.ac.kr/en_sc/1834/subview.do,known,"Coordinates manually checked for Yonsei University Sinchon Campus at 50 Yonsei-ro, Seodaemun-gu, Seoul 03722, Republic of Korea, and used as the institution-level coordinate for map visualization.",2026-06-29T20:18:00Z,2026-06-29T20:18:00Z,local-admin
location:6a892bbe4ee5712254e8,University of Toronto,university of toronto,Toronto,Ontario,Canada,CA,43.6635,-79.3958,Official institution page + map coordinate check,https://www.utoronto.ca/contacts,known,"Coordinates manually checked for the University of Toronto St. George campus at 27 King's College Circle, Toronto, Ontario M5S 1A1, Canada, and used as the institution-level coordinate for map visualization.",2026-06-29T20:19:59Z,2026-06-29T20:20:00Z,local-admin
location:2469c3505064216ce3a8,Queen's University,queen s university,Kingston,Ontario,Canada,CA,44.2253,-76.4951,Official institution page + map coordinate check,https://www.queensu.ca/about/visitor-info,known,"Coordinates manually checked for Queen's University main campus in Kingston, Ontario, Canada, and used as the institution-level coordinate for map visualization.",2026-06-29T20:26:19Z,2026-06-29T20:26:19Z,local-admin
location:91e76fe32279c58dea46,Hangzhou High-Tech Zone (Binjiang) Institute of Blockchain and Data Security,hangzhou high tech zone binjiang institute of blockchain and data security,Hangzhou,Zhejiang,China,CN,30.2079,120.2108,Official institution page + map coordinate check,https://hzbcds.zju.edu.cn/lxwm/list.htm,known,"Coordinates manually checked for Hangzhou High-Tech Zone (Binjiang) Institute of Blockchain and Data Security at Building 2, Block A, 4–7F, IoT Incubator Building, No. 399 Danfeng Road, Binjiang District, Hangzhou, Zhejiang, China, and used as the institution-level coordinate for map visualization.",2026-06-29T20:29:44Z,2026-06-29T20:29:44Z,local-admin
location:6d607bd40551e45ffbb1,Tamkang University,tamkang university,New Taipei City,Taiwan,Taiwan,TW,25.1754,121.4495,Official institution page + map coordinate check,https://english.tku.edu.tw/,known,"Coordinates manually checked for Tamkang University Tamsui Campus in New Taipei City, Taiwan, China, and used as the institution-level coordinate for map visualization.",2026-06-29T20:38:20Z,2026-06-29T21:18:30Z,local-admin
location:9958d7ee1cfec4aa225c,IMT School for Advanced Studies Lucca,imt school for advanced studies lucca,Lucca,Toscany,Italy,IT,43.8454,10.5065,Official institution page + map coordinate check,https://www.imtlucca.it/en/campus-and-services/how-to-reach-us,known,"Coordinates manually checked for IMT School for Advanced Studies Lucca campus at Piazza S. Francesco, 19, 55100 Lucca, Italy, and used as the institution-level coordinate for map visualization.",2026-06-30T15:33:15Z,2026-06-30T15:33:15Z,local-admin
location:15e8da2735014d497573,Central University of Finance and Economics,central university of finance and economics,Beijing,Beijing,China,CN,39.9626,116.3438,Official institution page + map coordinate check,http://en.cufe.edu.cn/,known,"Coordinates manually checked for Central University of Finance and Economics at 39 South College Road, Haidian District, Beijing, China, and used as the institution-level coordinate for map visualization.",2026-06-30T19:41:01Z,2026-06-30T19:41:01Z,local-admin
location:f04b96a9716ab2f49ddf,Mohamed bin Zayed University of Artificial Intelligence,mohamed bin zayed university of artificial intelligence,Abu Dhabi,Abu Dhabi,United Arab Emirates,AE,24.4329,54.6178,Official institution page + map coordinate check,https://mbzuai.ac.ae/about/contact/,known,"Coordinates manually checked for Mohamed bin Zayed University of Artificial Intelligence in Masdar City, Abu Dhabi, United Arab Emirates, and used as the institution-level coordinate for map visualization.",2026-06-30T21:10:30Z,2026-06-30T21:10:55Z,local-admin
location:afc29be68ac419bed0ee,Xi’an Jiaotong University,xi an jiaotong university,Xi’an,Shaanxi,China,CN,34.2467,108.9839,Official institution page + map coordinate check,https://en.xjtu.edu.cn/,known,"Coordinates manually checked for Xi’an Jiaotong University Xingqing Campus at No. 28 Xianning West Road, Xi’an, Shaanxi 710049, P.R. China, and used as the institution-level coordinate for map visualization.",2026-06-30T21:12:27Z,2026-07-01T04:33:48Z,local-admin
location:ec71dc4340659fd9f388,City University of Hong Kong,city university of hong kong,Hong Kong,Hong Kong,China,CN,22.3374,114.173,Official institution page + map coordinate check,https://www.cityu.edu.hk/en/about/campus/map,known,"Coordinates manually checked for City University of Hong Kong at Tat Chee Avenue, Kowloon, Hong Kong, China, and used as the institution-level coordinate for map visualization.",2026-06-30T21:13:52Z,2026-06-30T21:13:52Z,local-admin
location:baa1df7c4adddbda8d0b,Fudan University,fudan university,Shanghai,Shanghai,China,CN,31.2989,121.5018,Official institution page + map coordinate check,https://www.fudan.edu.cn/en/2019/0321/c352a95464/page.psp,known,"Coordinates manually checked for Fudan University at 220 Handan Road, Yangpu District, Shanghai 200433, China, and used as the institution-level coordinate for map visualization.",2026-07-01T03:40:19Z,2026-07-01T03:40:19Z,local-admin
location:b978b6dfc7b3baa06ec0,University of Bergen,university of bergen,Bergen,Vestland,Norway,NO,60.3862,5.3204,Official institution page + map coordinate check,https://www4.uib.no/en/about-uib/about-the-university/contact,known,"Coordinates manually checked for University of Bergen at Muséplassen 1, 5020 Bergen, Norway, and used as the institution-level coordinate for map visualization.",2026-07-01T03:41:51Z,2026-07-01T03:41:51Z,local-admin
location:6f4241a7694672b8f2da,Princeton University,princeton university,Princeton,New Jersey,United States,US,40.3431,-74.6551,Official institution page + map coordinate check,https://www.princeton.edu/,known,"Coordinates manually checked for Princeton University at Princeton, NJ 08544, United States, and used as the institution-level coordinate for map visualization.",2026-07-01T03:43:22Z,2026-07-01T03:43:22Z,local-admin
location:7417258b2e3d34918af8,University of Waterloo,university of waterloo,Waterloo,Ontario,Canada,CA,43.4723,-80.5449,Official institution page + map coordinate check,https://uwaterloo.ca/about/contact-us,known,"Coordinates manually checked for University of Waterloo at 200 University Avenue West, Waterloo, Ontario, N2L 3G1, Canada, and used as the institution-level coordinate for map visualization.",2026-07-01T03:45:05Z,2026-07-01T03:45:05Z,local-admin
location:5a73fc9b412db6f4212a,University of Hamburg,university of hamburg,Hamburg,Hamburg,Germany,DE,53.5661,9.9846,Official institution page + map coordinate check,https://www.uni-hamburg.de/en/studium/campus-leben/uni.html,known,"Coordinates manually checked for the University of Hamburg main building at Edmund-Siemers-Allee 1, 20146 Hamburg, Germany, and used as the institution-level coordinate for map visualization.",2026-07-01T03:46:25Z,2026-07-01T03:46:25Z,local-admin
location:7506c126bc077e9b7fdc,"University at Albany, SUNY",university at albany suny,Albany,New York,United States,US,42.6868,-73.8242,Official institution page + map coordinate check,https://www.albany.edu/,known,"Coordinates manually checked for University at Albany, SUNY at 1400 Washington Avenue, Albany, NY 12222, United States, and used as the institution-level coordinate for map visualization.",2026-07-01T03:47:49Z,2026-07-01T03:47:49Z,local-admin
location:bf6195b78f6dc9516f3e,Beijing Jiaotong University,beijing jiaotong university,Beijing,Beijing,China,CN,39.959,116.348,Official institution page + map coordinate check,https://en.bjtu.edu.cn/AboutBJTU/maps/index.htm,known,"Coordinates manually checked for Beijing Jiaotong University at No.3 Shangyuancun, Haidian District, Beijing 100044, P.R. China, and used as the institution-level coordinate for map visualization.",2026-07-01T03:48:55Z,2026-07-01T03:48:55Z,local-admin
location:6dd3ce9e0d5fd1abf889,Singapore University of Technology and Design,singapore university of technology and design,Singapore,Singapore,Singapore,SG,1.3414,103.9638,Official institution page + map coordinate check,https://www.sutd.edu.sg/contact-us/contact-sutd/,known,"Coordinates manually checked for Singapore University of Technology and Design at 8 Somapah Road, Singapore 487372, and used as the institution-level coordinate for map visualization.",2026-07-01T03:51:05Z,2026-07-01T03:51:05Z,local-admin
location:e81a0314e783d8a47718,"Agency for Science, Technology and Research (A*STAR)",agency for science technology and research a star,Singapore,Singapore,Singapore,SG,1.2996,103.7886,Official institution page + map coordinate check,https://www.a-star.edu.sg/contact-us,known,"Coordinates manually checked for A*STAR headquarters at 2 Fusionopolis Way, Innovis #08-01, Singapore 138634, and used as the institution-level coordinate for map visualization.",2026-07-01T03:51:57Z,2026-07-01T03:52:02Z,local-admin
location:c5810afc25d178a5d946,Yanshan University,yanshan university,Qinhuangdao,Hebei,China,CN,39.9044,119.5361,Official institution page + map coordinate check,https://english.ysu.edu.cn/International_Exchange/Study_at_YSU.htm,known,"Coordinates manually checked for Yanshan University at No. 438 West Hebei Avenue, Qinhuangdao, Hebei 066000, P. R. China, and used as the institution-level coordinate for map visualization.",2026-07-01T03:52:54Z,2026-07-01T03:52:54Z,local-admin
location:1e2fe2432a0897054ff4,Polytechnic University of Hauts-de-France,polytechnic university of hauts de france,Valenciennes,Hauts-de-France,France,FR,50.325,3.511,Official institution page + map coordinate check,https://www.uphf.fr/en/campus-life/campuses/valenciennes-mont-houy-campus,known,"Coordinates manually checked for Polytechnic University of Hauts-de-France Mont Houy Campus in Valenciennes, Hauts-de-France, France, and used as the institution-level coordinate for map visualization.",2026-07-01T03:54:34Z,2026-07-01T03:54:59Z,local-admin
location:271362b3e1310a1cc98c,Sorbonne University Abu Dhabi,sorbonne university abu dhabi,Abu Dhabi,Abu Dhabi,United Arab Emirates,AE,24.4851,54.4126,Official institution page + map coordinate check,https://www.sorbonne.ae/contact-us,known,"Coordinates manually checked for Sorbonne University Abu Dhabi on Al Reem Island, Abu Dhabi, United Arab Emirates, and used as the institution-level coordinate for map visualization.",2026-07-01T03:56:35Z,2026-07-01T03:56:35Z,local-admin
location:366058c27e3438744ac0,Massachusetts Institute of Technology,massachusetts institute of technology,Cambridge,Massachusetts,United States,US,42.3601,-71.0942,Official institution page + map coordinate check,https://www.mit.edu/contact/,known,"Coordinates manually checked for Massachusetts Institute of Technology at 77 Massachusetts Avenue, Cambridge, MA 02139, United States, and used as the institution-level coordinate for map visualization.",2026-07-01T03:59:48Z,2026-07-01T03:59:48Z,local-admin
location:b99e56fd553952504c88,National Yang Ming Chiao Tung University,national yang ming chiao tung university,Hsinchu,Taiwan,China,CN,24.786,120.997,Official institution page + map coordinate check,https://www.nycu.edu.tw/nycu/en/app/artwebsite/view?id=3032&module=artwebsite&serno=a6f7b786-aeb8-476f-a962-b03733098c99,known,"Coordinates manually checked for National Yang Ming Chiao Tung University Chiaotung Campus at No. 1001, Daxue Road, East District, Hsinchu City 300093, Taiwan, China, and used as the institution-level coordinate for map visualization.",2026-07-01T04:01:27Z,2026-07-01T04:01:27Z,local-admin
location:81f79a387128ccac27fa,Khalifa University,khalifa university,Abu Dhabi,Abu Dhabi,United Arab Emirates,AE,24.4692,54.3773,Official institution page + map coordinate check,https://www.ku.ac.ae/campus-main,known,"Coordinates manually checked for Khalifa University Main Campus on Abu Dhabi Island at the intersection of Al Saada Street and Old Airport Road, Abu Dhabi, United Arab Emirates, and used as the institution-level coordinate for map visualization.",2026-07-01T04:02:55Z,2026-07-01T04:02:55Z,local-admin
location:3e2e527953176c93d518,University of Wisconsin-Madison,university of wisconsin madison,Madison,Wisconsin,United States,US,43.0758,-89.4039,Official institution page + map coordinate check,https://strategiccommunication.wisc.edu/contact-us/,known,"Coordinates manually checked for University of Wisconsin–Madison at 500 Lincoln Drive, Madison, WI 53706, United States, and used as the institution-level coordinate for map visualization.",2026-07-01T04:04:05Z,2026-07-01T04:04:05Z,local-admin
location:c5eade35ea50a85601d3,Queen Mary University of London,queen mary university of london,London,England,United Kingdom,GB,51.523,-0.0395,Official institution page + map coordinate check,https://www.london.ac.uk/federation/queen-mary-university-london,known,"Coordinates manually checked for Queen Mary University of London at 327 Mile End Road, London E1 4NS, United Kingdom, and used as the institution-level coordinate for map visualization.",2026-07-01T04:05:38Z,2026-07-01T04:13:36Z,local-admin
location:35e36dc1a5213fa37380,Google Research,google research,Mountain View,California,United States,US,37.422,-122.0841,Official institution page + map coordinate check,https://about.google/company-info/locations/,known,"Coordinates manually checked for Google Research using Google Mountain View - Googleplex at 1600 Amphitheatre Parkway, Mountain View, CA 94043, United States, and used as the institution-level coordinate for map visualization.",2026-07-01T04:07:24Z,2026-07-01T04:07:24Z,local-admin
location:541450f1f663948c1bd8,ISTI-CNR,isti cnr,Pisa,Toscany,Italy,IT,43.7196,10.4217,Official institution page + map coordinate check,https://www.isti.cnr.it/en/about/contacts,known,"Coordinates manually checked for ISTI-CNR at Area della Ricerca CNR, Via Giuseppe Moruzzi 1, 56124 Pisa, Italy, and used as the institution-level coordinate for map visualization.",2026-07-01T04:08:50Z,2026-07-01T04:08:50Z,local-admin
location:721b1fe645c5b099b647,CNIT,cnit,Florence,Tuscany,Italy,IT,43.8016,11.2452,Official institution page + map coordinate check,https://www.cnit.it/en/about-cnit/research-units/university-of-florence/,known,"Coordinates manually checked for the CNIT University of Florence research unit at Viale Morgagni 65, 50134 Florence, Italy, and used as the institution-level coordinate for map visualization.",2026-07-01T04:10:19Z,2026-07-01T04:10:19Z,local-admin
location:592f613084a7ca9dda09,Southeast University,southeast university,Nanjing,Jiangsu,China,CN,31.8892,118.8156,Official institution page + map coordinate check,https://rsc.seu.edu.cn/rsc_en/22029/list.htm,known,"Coordinates manually checked for Southeast University Jiulonghu Campus at No.2 SEU Road, Nanjing, Jiangsu Province 211189, China, and used as the institution-level coordinate for map visualization.",2026-07-01T04:13:01Z,2026-07-01T04:13:01Z,local-admin
location:24e78a56f93457a51770,City University of London,city university of london,London,England,United Kingdom,GB,51.5279,-0.1028,Official institution page + map coordinate check,https://www.citystgeorges.ac.uk/about/find-contact,known,"Coordinates manually checked for City, University of London / City St George's at Northampton Square, London EC1V 0HB, United Kingdom, and used as the institution-level coordinate for map visualization.",2026-07-01T04:15:56Z,2026-07-01T04:16:05Z,local-admin
location:52cbdd91a8dbd658c458,Yonsei University,yonsei university,Seoul,Seoul,South Korea,KR,37.5665,126.9386,Official institution page + map coordinate check,https://www.yonsei.ac.kr/en_sc/intro/address.jsp,known,"Coordinates manually checked for Yonsei University Sinchon Campus at 50 Yonsei-ro, Seodaemun-gu, Seoul 03722, Republic of Korea, and used as the institution-level coordinate for map visualization.",2026-07-01T04:17:49Z,2026-07-01T04:18:02Z,local-admin
location:678fbbc18157fd4588f1,École Polytechnique,école polytechnique,Palaiseau,Île-de-France,France,FR,48.713,2.2087,Official institution page + map coordinate check,https://www.polytechnique.edu/en/contact,known,"Coordinates manually checked for École Polytechnique at Route de Saclay, 91128 Palaiseau Cedex, France, and used as the institution-level coordinate for map visualization.",2026-07-01T04:21:43Z,2026-07-01T04:21:43Z,local-admin
location:a28e1611e5e6b8b65824,Lanzhou University,lanzhou university,Lanzhou,Gansu,China,CN,36.047,103.859,Official institution page + map coordinate check,https://phy.lzu.edu.cn/English.htm,known,"Coordinates manually checked for Lanzhou University at No. 222 Tianshui South Road, Lanzhou, Gansu Province 730000, P.R. China, and used as the institution-level coordinate for map visualization.",2026-07-01T04:35:28Z,2026-07-01T04:35:28Z,local-admin
location:eefb779b4c760808ece1,Singapore Management University,singapore management university,Singapore,Singapore,Singapore,SG,1.2966,103.85,Official institution page + map coordinate check,https://www.smu.edu.sg/about/contact,known,"Coordinates manually checked for Singapore Management University Administration Building at 81 Victoria Street, Singapore 188065, and used as the institution-level coordinate for map visualization.",2026-07-01T04:37:02Z,2026-07-01T04:37:02Z,local-admin
location:90b589325857dff04efc,Purdue University,purdue university,West Lafayette,Indiana,United States,US,40.4237,-86.9212,Official institution page + map coordinate check,https://www.purdue.edu/home/contact-us/,known,"Coordinates manually checked for Purdue University at 610 Purdue Mall, West Lafayette, IN 47907, United States, and used as the institution-level coordinate for map visualization.",2026-07-01T04:38:37Z,2026-07-01T04:54:26Z,local-admin
location:aea376936c88135ba947,CISPA Helmholtz Center for Information Security,cispa helmholtz center for information security,Saarbrücken,Saarland,Germany,DE,49.2577,7.0422,Official institution page + map coordinate check,https://cispa.de/en/about/locations,known,"Coordinates manually checked for CISPA Helmholtz Center for Information Security main building at Stuhlsatzenhaus 5, 66123 Saarbrücken, Germany, and used as the institution-level coordinate for map visualization.",2026-07-01T04:40:37Z,2026-07-01T04:40:37Z,local-admin
location:31f980eaa403801addc9,The Hong Kong Polytechnic University,the hong kong polytechnic university,Hong Kong,Hong Kong,China,CN,22.3046,114.1796,Official institution page + map coordinate check,https://www.polyu.edu.hk/contact-us/form.php,known,"Coordinates manually checked for The Hong Kong Polytechnic University at Hung Hom, Kowloon, Hong Kong, China, and used as the institution-level coordinate for map visualization.",2026-07-01T04:42:07Z,2026-07-01T04:42:07Z,local-admin
location:d046d2c57bb3a863a89a,University of Naples Federico II,university of naples federico ii,Naples,Campania,Italy,IT,40.8463,14.2572,Official institution page + map coordinate check,https://www.international.unina.it/contacts/,known,"Coordinates manually checked for University of Naples Federico II at Corso Umberto I, 40, 80138 Naples, Italy, and used as the institution-level coordinate for map visualization.",2026-07-01T04:52:22Z,2026-07-01T04:52:22Z,local-admin
location:7d7f56dced000a0989a3,University of Chicago,university of chicago,Chicago,Illinois,United States,US,41.7897,-87.5997,Official institution page + map coordinate check,https://www.uchicago.edu/,known,"Coordinates manually checked for University of Chicago at 5801 South Ellis Avenue, Chicago, IL 60637, United States, and used as the institution-level coordinate for map visualization.",2026-07-01T04:56:03Z,2026-07-01T04:56:03Z,local-admin
location:bf3ddd5552577ff02ad6,University of Illinois Urbana-Champaign,university of illinois urbana champaign,Urbana,Illinois,United States,US,40.1095,-88.2272,Official institution page + map coordinate check,https://illinois.edu/contacts/,known,"Coordinates manually checked for University of Illinois Urbana-Champaign at 901 W. Illinois Street, Urbana, IL 61801, United States, and used as the institution-level coordinate for map visualization.",2026-07-01T04:57:56Z,2026-07-01T04:57:56Z,local-admin
location:ac7aeed6b85a0a40dfb1,Arizona State University,arizona state university,Tempe,Arizona,United States,US,33.4215,-111.9332,Official institution page + map coordinate check,https://www.asu.edu/about/contact,known,"Coordinates manually checked for Arizona State University Tempe campus at 1151 S. Forest Ave., Tempe, AZ 85281, United States, and used as the institution-level coordinate for map visualization.",2026-07-01T04:59:36Z,2026-07-01T04:59:36Z,local-admin
location:a55a77635edc8711d002,University of Texas at Dallas,university of texas at dallas,Richardson,Texas,United States,US,32.9858,-96.7501,Official institution page + map coordinate check,https://www.utdallas.edu/about-us/contact-location/,known,"Coordinates manually checked for University of Texas at Dallas at 800 W. Campbell Road, Richardson, TX 75080-3021, United States, and used as the institution-level coordinate for map visualization.",2026-07-01T05:01:01Z,2026-07-01T05:01:01Z,local-admin
location:42fcf4ae44e1a706454c,University of Florence,university of florence,Florence,Tuscany,Italy,IT,43.7779,11.2591,Official institution page + map coordinate check,https://www.unifi.it/en,known,"Coordinates manually checked for University of Florence at Piazza San Marco 4, 50121 Florence, Italy, and used as the institution-level coordinate for map visualization.",2026-07-01T05:03:27Z,2026-07-01T05:03:27Z,local-admin
location:be74dcf5d0cb77ea7a59,"University of California, Berkeley",university of california berkeley,Berkeley,California,United States,US,37.8719,-122.2585,Official institution page + map coordinate check,https://www.berkeley.edu/contact-us/,known,"Coordinates manually checked for University of California, Berkeley in Berkeley, CA 94720, United States, and used as the institution-level coordinate for map visualization.",2026-07-01T05:04:46Z,2026-07-01T05:04:46Z,local-admin
location:e433baf78e80004bdaba,Zhejiang University,zhejiang university,Hangzhou,Zhejiang,China,CN,30.3083,120.0867,Official institution page + map coordinate check,https://www.zju.edu.cn/english/2023/0509/c75921a2754909/page.htm,known,"Coordinates manually checked for Zhejiang University Zijingang Campus at 866 Yuhangtang Road, Hangzhou 310058, P.R. China, and used as the institution-level coordinate for map visualization.",2026-07-01T05:06:03Z,2026-07-01T05:25:43Z,local-admin
location:8f8dd64c6339c8ff95bb,Ruhr University Bochum,ruhr university bochum,Bochum,North Rhine-Westphalia,Germany,DE,51.4472,7.2603,Official institution page + map coordinate check,https://www.ruhr-uni-bochum.de/en/contact-information,known,"Coordinates manually checked for Ruhr University Bochum at Universitätsstraße 150, 44801 Bochum, Germany, and used as the institution-level coordinate for map visualization.",2026-07-01T05:08:07Z,2026-07-01T05:08:07Z,local-admin
location:3ec8d9fa829f57771f7d,University of Pisa,university of pisa,Pisa,Tuscany,Italy,IT,43.7156,10.4017,Official institution page + map coordinate check,https://www.unipi.it/en/,known,"Coordinates manually checked for University of Pisa at Lungarno Pacinotti 43, 56126 Pisa, Italy, and used as the institution-level coordinate for map visualization.",2026-07-01T05:09:42Z,2026-07-01T05:09:42Z,local-admin
location:89b9b3962b3327c86a1c,University of Michigan,university of michigan,Ann Arbor,Michigan,United States,US,42.278,-83.7382,Official institution page + map coordinate check,https://umich.edu/contact/,known,"Coordinates manually checked for University of Michigan at Ann Arbor, Michigan, United States, and used as the institution-level coordinate for map visualization.",2026-07-01T05:11:47Z,2026-07-01T05:11:47Z,local-admin
location:73bb0fe265f6e09054a8,Friedrich-Alexander-Universität Erlangen-Nürnberg,friedrich alexander universität erlangen nürnberg,Erlangen,Bavaria,Germany,DE,49.5739,11.0285,Official institution page + map coordinate check,https://www.fau.eu/contact/,known,"Coordinates manually checked for Friedrich-Alexander-Universität Erlangen-Nürnberg headquarters at Freyeslebenstraße 1, 91058 Erlangen, Germany, and used as the institution-level coordinate for map visualization.",2026-07-01T05:13:35Z,2026-07-01T05:13:35Z,local-admin
location:977430a4473aa4b05cfe,Sapienza University of Rome,sapienza university of rome,Rome,Lazio,Italy,IT,41.9028,12.5158,Official institution page + map coordinate check,https://www.uniroma1.it/en/pagina/where-am-i,known,"Coordinates manually checked for Sapienza University of Rome main campus at Piazzale Aldo Moro 5, 00185 Rome, Italy, and used as the institution-level coordinate for map visualization.",2026-07-01T05:14:50Z,2026-07-01T05:14:50Z,local-admin
location:33a58a66974db1122537,Rutgers University,rutgers university,New Brunswick,New Jersey,United States,US,40.5008,-74.4474,Official institution page + map coordinate check,https://www.rutgers.edu/contact-us,known,"Coordinates manually checked for Rutgers University using Rutgers–New Brunswick at 57 US Highway 1, New Brunswick, NJ 08901-8554, United States, and used as the institution-level coordinate for map visualization.",2026-07-01T05:16:10Z,2026-07-01T05:16:10Z,local-admin
location:fd8ba2b56bf5212da236,University of Catania,university of catania,Catania,Sicily,Italy,IT,37.5027,15.0873,Official institution page + map coordinate check,https://www.unict.it/en/contact,known,"Coordinates manually checked for University of Catania at Piazza Università 2, 95131 Catania, Italy, and used as the institution-level coordinate for map visualization.",2026-07-01T05:17:31Z,2026-07-01T05:17:31Z,local-admin
location:117fcda9a639910897cc,University of Modena and Reggio Emilia,university of modena and reggio emilia,Modena,Emilia-Romagna,Italy,IT,44.6464,10.925,Official institution page + map coordinate check,https://www.unimore.it/it,known,"Coordinates manually checked for University of Modena and Reggio Emilia at Via Università 4, 41121 Modena, Italy, and used as the institution-level coordinate for map visualization.",2026-07-01T05:19:23Z,2026-07-01T05:19:23Z,local-admin
location:929ddef9540ec1e76a47,Xiamen University,xiamen university,Xiamen,Fujian,China,CN,24.4389,118.0947,Official institution page + map coordinate check,https://cotp.xmu.edu.cn/COTP_experience/Life_at_XMU/Campus_map_and_directions.htm,known,"Coordinates manually checked for Xiamen University Siming Campus at No. 422 Siming South Road, Siming District, Xiamen, Fujian Province 361005, P.R. China, and used as the institution-level coordinate for map visualization.",2026-07-01T05:20:35Z,2026-07-01T05:20:35Z,local-admin
location:4ae45b121fe12e9c10b4,Tsinghua University,tsinghua university,Beijing,Beijing,China,CN,40.0007,116.3267,Official institution page + map coordinate check,https://www.tsinghua.edu.cn/en/Contact.htm,known,"Coordinates manually checked for Tsinghua University in Haidian District, Beijing 100084, P.R. China, and used as the institution-level coordinate for map visualization.",2026-07-01T05:22:16Z,2026-07-01T05:22:16Z,local-admin
location:65dbfd1e022f02e2ac68,University of Siena,university of siena,Siena,Toscany,Italy,IT,43.3191,11.3328,Official institution page + map coordinate check,https://en.unisi.it/,known,"Coordinates manually checked for University of Siena at Via Banchi di Sotto 55, 53100 Siena, Italy, and used as the institution-level coordinate for map visualization.",2026-07-01T05:23:47Z,2026-07-01T05:23:47Z,local-admin
location:f23b95ce92de459152b1,Wuhan University,wuhan university,Wuhan,Hubei,China,CN,30.5407,114.3603,Official institution page + map coordinate check,https://en.whu.edu.cn/,known,"Coordinates manually checked for Wuhan University at Luojia Hill / Wuchang District, Wuhan, Hubei Province 430072, P.R. China, and used as the institution-level coordinate for map visualization.",2026-07-01T05:25:35Z,2026-07-01T05:25:35Z,local-admin
location:b8a4e3b25fd4a300264f,University of Macao,university of macao,Macao,Macao,China,CN,22.13,113.5458,Official institution page + map coordinate check,https://www.um.edu.mo/contact/,known,"Coordinates manually checked for University of Macao at Avenida da Universidade, Taipa, Macau, China, and used as the institution-level coordinate for map visualization.",2026-07-01T05:28:09Z,2026-07-01T05:28:09Z,local-admin
location:e80b94c605da24cea15f,Sungkyunkwan University,sungkyunkwan university,Suwon,Gyeonggi-do,South Korea,KR,37.2939,126.9757,Official institution page + map coordinate check,https://eng.skku.edu/eng/About/campusinfo/campus_telInfo2.do,known,"Coordinates manually checked for Sungkyunkwan University Natural Sciences Campus at 2066 Seobu-ro, Jangan-gu, Suwon-si, Gyeonggi-do 16419, Republic of Korea, and used as the institution-level coordinate for map visualization.",2026-07-01T05:30:06Z,2026-07-01T05:30:06Z,local-admin
location:4c1e9439f241e5ec9941,Sichuan University,sichuan university,Chengdu,Sichuan,China,CN,30.6331,104.0819,Official institution page + map coordinate check,https://global.scu.edu.cn/oso/article/index/1091,known,"Coordinates manually checked for Sichuan University Wangjiang Campus at No. 24 South Section 1, Yihuan Road, Chengdu, Sichuan Province 610065, P.R. China, and used as the institution-level coordinate for map visualization.",2026-07-01T05:31:27Z,2026-07-01T05:31:27Z,local-admin
location:f336b3005794930bb660,Beihang University,beihang university,Beijing,Beijing,China,CN,39.9811,116.3443,Official institution page + map coordinate check,https://is.buaa.edu.cn/en/cu.htm,known,"Coordinates manually checked for Beihang University Xueyuan Road Campus at No. 37 Xueyuan Road, Haidian District, Beijing 100191, P.R. China, and used as the institution-level coordinate for map visualization.",2026-07-01T05:32:43Z,2026-07-01T05:32:43Z,local-admin
location:e73ae6a6d6ff3735f995,University of Bologna,university of bologna,Bologna,Emilia-Romagna,Italy,IT,44.4964,11.3547,Official institution page + map coordinate check,https://www.unibo.it/en,known,"Coordinates manually checked for University of Bologna at Via Zamboni 33, 40126 Bologna, Italy, and used as the institution-level coordinate for map visualization.",2026-07-01T05:34:22Z,2026-07-01T05:34:22Z,local-admin
location:6c246ba350e11d5fb08a,Université de Rennes,université de rennes,Rennes,Brittany,France,FR,48.1155,-1.6385,Official institution page + map coordinate check,https://www.ietr.fr/,known,"Coordinates manually checked for Université de Rennes / IETR at Campus de Beaulieu, bâtiment 11D, 263 avenue du Général Leclerc, 35042 Rennes, France, and used as the institution-level coordinate for map visualization.",2026-07-01T05:43:58Z,2026-07-01T05:43:58Z,local-admin
location:bf0065cf4529e95358f2,University of Technology of Troyes,university of technology of troyes,Troyes,Grand Est,France,FR,48.2696,4.0668,Official institution page + map coordinate check,https://www.utt.fr/,known,"Coordinates manually checked for University of Technology of Troyes at 12 rue Marie Curie, CS 42060, 10004 Troyes Cedex, France, and used as the institution-level coordinate for map visualization.",2026-07-01T05:45:46Z,2026-07-01T05:45:46Z,local-admin
location:4f85329e76bc9454f8a4,University at Buffalo,university at buffalo,Amherst,Amherst,United States,US,43.001,-78.79,Official institution page + map coordinate check,https://www.buffalo.edu/home/visiting-ub.to-north-campus.html,known,"Coordinates manually checked for University at Buffalo North Campus at Flint Entrance, Amherst, NY 14260, United States, and used as the institution-level coordinate for map visualization.",2026-07-01T05:47:29Z,2026-07-01T05:47:29Z,local-admin
location:304707b21fcfbd4d1653,University of Massachusetts Amherst,university of massachusetts amherst,Amherst,Massachusetts,United States,US,42.3868,-72.5301,Official institution page + map coordinate check,https://www.umass.edu/gateway/contact-us,known,"Coordinates manually checked for University of Massachusetts Amherst in Amherst, Massachusetts, United States, and used as the institution-level coordinate for map visualization.",2026-07-01T05:49:03Z,2026-07-01T05:49:03Z,local-admin
location:6432056cdf12bb16c731,University of Southern California,university of southern california,Los Angeles,California,United States,US,34.0224,-118.2851,Official institution page + map coordinate check,https://usc.edu/visit-usc/,known,"Coordinates manually checked for University of Southern California University Park Campus in Los Angeles, CA 90089, United States, and used as the institution-level coordinate for map visualization.",2026-07-01T05:50:18Z,2026-07-01T05:50:18Z,local-admin
location:fa6adc95226df54229ae,Clemson University,clemson university,Clemson,South Carolina,United States,US,34.6773,-82.8364,Official institution page + map coordinate check,https://www.clemson.edu/contactus.html,known,"Coordinates manually checked for Clemson University in Clemson, South Carolina 29634, United States, and used as the institution-level coordinate for map visualization.",2026-07-01T05:51:33Z,2026-07-01T05:51:33Z,local-admin
location:5dbb9ac6a407e07971dc,"The Chinese University of Hong Kong, Shenzhen",the chinese university of hong kong shenzhen,Shenzhen,Guangdong,China,CN,22.6867,114.2117,Official institution page + map coordinate check,https://www.cuhk.edu.cn/en/node/77,known,"Coordinates manually checked for The Chinese University of Hong Kong, Shenzhen at 2001 Longxiang Road, Longgang District, Shenzhen, Guangdong Province 518172, P.R. China, and used as the institution-level coordinate for map visualization.",2026-07-01T05:52:50Z,2026-07-01T05:52:50Z,local-admin
location:c76018a960d2cd12355c,Université de Lille,université de lille,Villeneuve-d'Ascq,Hauts-de-France,France,FR,50.6093,3.139,Official institution page + map coordinate check,https://www.univ-lille.fr/en/maps-and-contacts,known,"Coordinates manually checked for Université de Lille Campus Cité scientifique in Villeneuve-d'Ascq, Hauts-de-France, France, and used as the institution-level coordinate for map visualization.",2026-07-01T05:54:21Z,2026-07-01T05:54:21Z,local-admin
location:6346b1a9c3b5ccd791ab,Peking University Shenzhen Graduate School,peking university shenzhen graduate school,Shenzhen,Guangdong,China,CN,22.5996,113.9733,Official institution page + map coordinate check,https://english.pkusz.edu.cn/About/Visit_Us.htm,known,"Coordinates manually checked for Peking University Shenzhen Graduate School at University Town of Shenzhen, Xili, Nanshan District, Shenzhen 518055, P.R. China, and used as the institution-level coordinate for map visualization.",2026-07-01T05:55:38Z,2026-07-01T05:55:38Z,local-admin
location:f87d6ace800645a76f85,University of Baghdad,university of baghdad,Baghdad,Baghdad Governorate,Iraq,IQ,33.2806,44.3789,Official institution page + map coordinate check,https://en.uobaghdad.edu.iq/,known,"Coordinates manually checked for University of Baghdad main campus in Al-Jadriya, Baghdad, Baghdad Governorate, Iraq, and used as the institution-level coordinate for map visualization.",2026-07-01T05:56:54Z,2026-07-01T05:56:54Z,local-admin
location:4745b20cdc6c5fb08415,Univresity of Tskuba,univresity of tskuba,Tsukuba,Ibaraki,Japan,JP,36.1106,140.1015,Official institution page + map coordinate check,https://www.tsukuba.ac.jp/en/about/campus-access/tsukuba-campus/,known,"Coordinates manually checked for University of Tsukuba Tsukuba Campus at 1-1-1 Tennodai, Tsukuba, Ibaraki 305-8577, Japan, and used as the institution-level coordinate for map visualization.",2026-07-01T06:01:43Z,2026-07-01T06:01:43Z,local-admin
location:924e1e0e9723b423ac7c,Beijing Normal University,beijing normal university,Beijing,Beijing,China,CN,39.9609,116.3661,Official institution page + map coordinate check,https://english.bnu.edu.cn/dblj1/contactus/index.htm,known,"Coordinates manually checked for Beijing Normal University at No. 19 Xinjiekouwai Street, Haidian District, Beijing 100875, P.R. China, and used as the institution-level coordinate for map visualization.",2026-07-01T06:03:06Z,2026-07-01T06:03:06Z,local-admin
location:9b91aedca1273b5693f7,Zhejiang University of Technology,zhejiang university of technology,Hangzhou,Zhejiang,China,CN,30.2954,120.1609,Official institution page + map coordinate check,https://homepage.zjut.edu.cn/ls2105_en/,known,"Coordinates manually checked for Zhejiang University of Technology Zhaohui Campus at No. 18 Chaowang Road, Gongshu District, Hangzhou, Zhejiang Province 310014, P.R. China, and used as the institution-level coordinate for map visualization.",2026-07-01T06:04:17Z,2026-07-01T06:04:17Z,local-admin
location:1502cb7c96ae3095e27b,Beijing University of Posts and Telecommunications,beijing university of posts and telecommunications,Beijing,Beijing,China,CN,39.962,116.358,Official institution page + map coordinate check,https://cce-sice.bupt.edu.cn/Contact_us/Contact_information.htm,known,"Coordinates manually checked for Beijing University of Posts and Telecommunications Xitucheng Road main campus at No. 10 Xitucheng Road, Haidian District, Beijing 100876, P.R. China, and used as the institution-level coordinate for map visualization.",2026-07-01T06:05:36Z,2026-07-01T06:06:08Z,local-admin
location:a0c3927e4ddb3a39da1e,University of Southampton,university of southampton,Southampton,England,United Kingdom,GB,50.9344,-1.3958,Official institution page + map coordinate check,https://www.southampton.ac.uk/about/contact,known,"Coordinates manually checked for University of Southampton Highfield Campus at University Road, Southampton SO17 1BJ, United Kingdom, and used as the institution-level coordinate for map visualization.",2026-07-01T06:07:29Z,2026-07-01T06:07:29Z,local-admin
location:e721b03b6f6c172dd7c7,University of Science and Technology of China,university of science and technology of china,Hefei,Anhui,China,CN,31.8229,117.2808,Official institution page + map coordinate check,https://en.ustc.edu.cn/,known,"Coordinates manually checked for University of Science and Technology of China East Campus at No. 96 Jinzhai Road, Baohe District, Hefei, Anhui Province 230026, P.R. China, and used as the institution-level coordinate for map visualization.",2026-07-01T06:08:45Z,2026-07-01T06:08:45Z,local-admin
location:b83f47152ad1ec2938c3,Hebei University of Technology,hebei university of technology,Tianjin,Tianjin,China,CN,39.228,117.061,Official institution page + map coordinate check,https://eweb.hebut.edu.cn/Global/Contactus/index.htm,known,"Coordinates manually checked for Hebei University of Technology Beichen Campus at No. 5340 Xiping Road, Beichen District, Tianjin 300401, P.R. China, and used as the institution-level coordinate for map visualization.",2026-07-01T06:10:05Z,2026-07-01T06:10:05Z,local-admin
location:e0fc2ffb269489e70cd7,Drexel University,drexel university,Philadelphia,Philadelphia,United States,US,39.9566,-75.1899,Official institution page + map coordinate check,https://drexel.edu/about/contact,known,"Coordinates manually checked for Drexel University main campus at 3141 Chestnut Street, Philadelphia, PA 19104, United States, and used as the institution-level coordinate for map visualization.",2026-07-01T06:11:40Z,2026-07-01T06:11:40Z,local-admin
location:3c4903b35459f2b51c15,University of Trento,university of trento,Trento,Trentino-Alto Adige/Südtirol,Italy,IT,46.0668,11.1232,Official institution page + map coordinate check,https://www.unitn.it/en,known,"Coordinates manually checked for University of Trento at Via Calepina 14, 38122 Trento, Italy, and used as the institution-level coordinate for map visualization.",2026-07-01T06:13:15Z,2026-07-01T06:13:15Z,local-admin
location:5a28a1a99a417ba5e640,Ant Group,ant group,Hangzhou,Zhejiang,China,CN,30.2613,120.1042,Official institution page + map coordinate check,https://www.antgroup.com/en/about/our-offices,known,"Coordinates manually checked for Ant Group Headquarters at A Space, No. 569 Xixi Road, Hangzhou, Zhejiang, P.R. China, and used as the institution-level coordinate for map visualization.",2026-07-01T06:15:47Z,2026-07-01T06:15:47Z,local-admin
location:3e9b289ae248f6600cee,South China University of Technology,south china university of technology,Guangzhou,Guangdong,China,CN,23.151,113.349,Official institution page + map coordinate check,https://www.scut.edu.cn/en/532/list.htm,known,"Coordinates manually checked for South China University of Technology Wushan Campus at 381 Wushan Road, Tianhe District, Guangzhou, Guangdong Province 510641, P.R. China, and used as the institution-level coordinate for map visualization.",2026-07-01T06:17:27Z,2026-07-01T06:17:27Z,local-admin
location:8632718a2c1444c6cc38,Jinan University,jinan university,Guangzhou,Guangdong,China,CN,23.1335,113.3419,Official institution page + map coordinate check,https://admission.jnu.edu.cn/3760/listm.htm,known,"Coordinates manually checked for Jinan University Shipai Campus at No. 601 Huangpu Avenue West, Tianhe District, Guangzhou, Guangdong Province 510632, P.R. China, and used as the institution-level coordinate for map visualization.",2026-07-01T06:18:49Z,2026-07-01T06:18:49Z,local-admin
location:8fe72087521e285a8c05,Guangdong University of Technology,guangdong university of technology,Guangzhou,Guangdong,China,CN,23.0374,113.3948,Official institution page + map coordinate check,https://hkxy.gdut.edu.cn/en/Contact_us.htm,known,"Coordinates manually checked for Guangdong University of Technology Guangzhou University Town Campus at 100 Waihuan West Road, Guangzhou Higher Education Mega Center, Panyu District, Guangzhou, Guangdong Province 510006, P.R. China, and used as the institution-level coordinate for map visualization.",2026-07-01T06:20:07Z,2026-07-01T06:20:07Z,local-admin
location:1f9be0c6a5d4aa0bac4a,Hong Kong University of Science and Technology,hong kong university of science and technology,Hongkong,Hongkong,China,CN,22.3376,114.263,Official institution page + map coordinate check,https://hkust.edu.hk/contact-us,known,"Coordinates manually checked for Hong Kong University of Science and Technology Clear Water Bay Campus at Clear Water Bay, Kowloon, Hong Kong, and used as the institution-level coordinate for map visualization.",2026-07-01T06:21:17Z,2026-07-01T06:21:17Z,local-admin
location:e67012d79bb3f60302be,China University of Mining and Technology,china university of mining and technology,Xuzhou,Jiangsu,China,CN,34.2166,117.142,Official institution page + map coordinate check,https://sac.cumt.edu.cn/en/CONTACT_US.htm,known,"Coordinates manually checked for China University of Mining and Technology in Xuzhou, Jiangsu Province, P.R. China, and used as the institution-level coordinate for map visualization.",2026-07-01T06:22:38Z,2026-07-01T06:22:38Z,local-admin
location:b85a1a866c0c7fe88231,Aarhus University,aarhus university,Aarhus,Central Denmark Region,Denmark,DK,56.1685,10.2037,Official institution page + map coordinate check,https://international.au.dk/about/contact-and-visitors-service,known,"Coordinates manually checked for Aarhus University main campus at Nordre Ringgade 1, 8000 Aarhus C, Denmark, and used as the institution-level coordinate for map visualization.",2026-07-01T06:24:08Z,2026-07-01T06:24:08Z,local-admin
location:c111feb812f1a7ed9465,Nanyang Technological University,nanyang technological university,Singapore,Singapore,Singapore,SG,1.3483,103.6831,Official institution page + map coordinate check,https://www.ntu.edu.sg/about-us/contact-us,known,"Coordinates manually checked for Nanyang Technological University main campus at 50 Nanyang Avenue, Singapore 639798, and used as the institution-level coordinate for map visualization.",2026-07-01T06:25:30Z,2026-07-01T06:25:30Z,local-admin
location:69309405e04976ecd5ee,University of Chinese Academy of Sciences,university of chinese academy of sciences,Beijing,Beijing,China,CN,39.9078,116.2523,Official institution page + map coordinate check,https://english.ucas.ac.cn/index.php/about-ucas/contact,known,"Coordinates manually checked for University of Chinese Academy of Sciences Yuquanlu Campus at No.19A Yuquan Road, Shijingshan District, Beijing 100049, P.R. China, and used as the institution-level coordinate for map visualization.",2026-07-01T06:28:48Z,2026-07-01T06:28:48Z,local-admin
location:3afb6cc453e0a8d9ae48,Chinese Academy of Sciences,chinese academy of sciences,Beijing,Beijing,China,CN,39.9163,116.3385,Official institution page + map coordinate check,https://english.cas.cn/about-cas/contact/,known,"Coordinates manually checked for Chinese Academy of Sciences headquarters at 52 Sanlihe Road, Xicheng District, Beijing 100864, P.R. China, and used as the institution-level coordinate for map visualization.",2026-07-01T06:31:42Z,2026-07-01T06:31:42Z,local-admin
location:cee70184073782c75a7d,"Institute of Information Engineering, Chinese Academy of Sciences",institute of information engineering chinese academy of sciences,Beijing,Beijing,China,CN,39.9163,116.3385,Official institution page + map coordinate check,https://english.cas.cn/about-cas/contact/,known,"Coordinates manually checked for Chinese Academy of Sciences headquarters at 52 Sanlihe Road, Xicheng District, Beijing 100864, P.R. China, and used as the institution-level coordinate for map visualization.",2026-07-01T06:41:02Z,2026-07-01T06:44:50Z,local-admin
location:966ff12833f90bb0ba7e,"Institute of Automation, Chinese Academy of Sciences",institute of automation chinese academy of sciences,Beijing,Beijing,China,CN,39.9826,116.3336,Official institution page + map coordinate check,https://english.ia.cas.cn/au/cu/,known,"Coordinates manually checked for Institute of Automation, Chinese Academy of Sciences at No. 95 Zhongguancun East Road, Haidian District, Beijing 100190, P.R. China, and used as the institution-level coordinate for map visualization.",2026-07-01T06:42:55Z,2026-07-01T06:42:55Z,local-admin
location:9dd7b58a09f6962c8d77,"HKISI, Chinese Academy of Sciences",hkisi chinese academy of sciences,Hong Kong,Hong Kong,China,CN,22.4267,114.2119,Official institution page + map coordinate check,https://www.cair-cas.org.hk/contact,known,"Coordinates manually checked for Hong Kong Institute of Science and Innovation, Chinese Academy of Sciences at Hong Kong Science Park, Pak Shek Kok, New Territories, Hong Kong, and used as the institution-level coordinate for map visualization.",2026-07-01T06:44:25Z,2026-07-01T06:44:25Z,local-admin
location:bc1d8b5fba4bc5ff7929,Northwestern Polytechnical University,northwestern polytechnical university,Xi’an,Shaanxi,China,CN,34.2446,108.9186,Official institution page + map coordinate check,https://en.nwpu.edu.cn/npu/ContactxUs.htm,known,"Coordinates manually checked for Northwestern Polytechnical University Youyi Campus at 127 West Youyi Road, Beilin District, Xi'an, Shaanxi Province 710072, P.R. China, and used as the institution-level coordinate for map visualization.",2026-07-01T06:46:38Z,2026-07-01T06:46:38Z,local-admin
location:fde22ad658a3fdb99139,University of Alabama at Birmingham,university of alabama at birmingham,Birmingham,Alabama,United States,US,33.5022,-86.8092,Official institution page + map coordinate check,https://www.uab.edu/home/contact,known,"Coordinates manually checked for University of Alabama at Birmingham at 1720 2nd Ave South, Birmingham, AL 35294, United States, and used as the institution-level coordinate for map visualization.",2026-07-01T06:48:05Z,2026-07-01T06:48:05Z,local-admin
location:1afce89cd4f3571fdaf4,Universitas Mercatorum,universitas mercatorum,Rome,Lazio,Italy,IT,41.8936,12.4784,Official institution page + map coordinate check,https://www.unimercatorum.it/ateneo/le-sedi,known,"Coordinates manually checked for Universitas Mercatorum legal headquarters at Piazza Mattei 10, 00186 Rome, Lazio, Italy, and used as the institution-level coordinate for map visualization.",2026-07-01T06:49:44Z,2026-07-01T06:49:44Z,local-admin
location:43ae05e86afd56bdb3af,Xidian University,xidian university,Xi'an,Shaanxi,China,CN,34.125,108.829,Official institution page + map coordinate check,https://en.xidian.edu.cn/,known,"Coordinates manually checked for Xidian University South Campus at 266 Xinglong Section of Xifeng Road, Xi'an, Shaanxi Province 710126, P.R. China, and used as the institution-level coordinate for map visualization.",2026-07-01T06:51:09Z,2026-07-01T06:51:09Z,local-admin
location:87d9a45b3389372f7ffd,University of Oxford,university of oxford,Oxford,England,United Kingdom,GB,51.759,-1.2634,Official institution page + map coordinate check,https://www.ox.ac.uk/about/contact-us,known,"Coordinates manually checked for University of Oxford University Offices at Wellington Square, Oxford OX1 2JD, United Kingdom, and used as the institution-level coordinate for map visualization.",2026-07-01T06:52:37Z,2026-07-01T06:52:37Z,local-admin
location:fe438b1c7662476fc651,Harbin Institute of Technology,harbin institute of technology,Harbin,Heilongjiang,China,CN,45.7469,126.632,Official institution page + map coordinate check,https://en.hit.edu.cn/ContactUs/list.htm,known,"Coordinates manually checked for Harbin Institute of Technology main campus at No. 92 Xidazhi Street, Nangang District, Harbin, Heilongjiang Province, P.R. China, and used as the institution-level coordinate for map visualization.",2026-07-01T06:53:48Z,2026-07-01T06:53:48Z,local-admin
location:7e10613327a4e264467e,Chongqing University of Posts and Telecommunications,chongqing university of posts and telecommunications,Chongqing,Chongqing,China,CN,29.5315,106.6043,Official institution page + map coordinate check,https://english.cqupt.edu.cn/,known,"Coordinates manually checked for Chongqing University of Posts and Telecommunications main campus at No. 2 Chongwen Road, Nan’an District, Chongqing 400065, P.R. China, and used as the institution-level coordinate for map visualization.",2026-07-01T06:55:01Z,2026-07-01T06:55:33Z,local-admin
location:04b81a56c7eb1a697ed7,Informatics Institute for Postgraduate Studies,informatics institute for postgraduate studies,Baghdad,Baghdad,Iraq,IQ,33.3128,44.4215,Official institution page + map coordinate check,https://iips.edu.iq/,known,"Coordinates manually checked for Informatics Institute for Postgraduate Studies at Al-Nidhal Street, Karada, near Ibn Al-Haytham Hospital, Baghdad, Iraq, and used as the institution-level coordinate for map visualization.",2026-07-01T07:01:40Z,2026-07-01T07:01:40Z,local-admin
location:0c5e25ec47ce33feefff,Université Paris-Saclay,université paris saclay,Gif-sur-Yvette,Île-de-France,France,FR,48.7097,2.1658,Official institution page + map coordinate check,https://www.universite-paris-saclay.fr/en/legal-notice,known,"Coordinates manually checked for Université Paris-Saclay headquarters at 3 rue Joliot Curie, Bâtiment Breguet, 91190 Gif-sur-Yvette, Île-de-France, France, and used as the institution-level coordinate for map visualization.",2026-07-01T07:04:32Z,2026-07-01T07:04:32Z,local-admin
location:969d6dd2c9cf6a1e3738,"University of Nevada, Reno",university of nevada reno,Reno,Nevada,United States,US,39.5442,-119.8147,Official institution page + map coordinate check,https://www.unr.edu/contact,known,"Coordinates manually checked for University of Nevada, Reno main campus at 1664 N. Virginia St., Reno, NV 89557, United States, and used as the institution-level coordinate for map visualization.",2026-07-01T07:06:30Z,2026-07-01T07:06:30Z,local-admin
location:74eb5a7db024286599fe,Nanchang University,nanchang university,Nanchang,Jiangxi,China,CN,28.6546,115.8127,Official institution page + map coordinate check,https://iec.ncu.edu.cn/en/index.htm,known,"Coordinates manually checked for Nanchang University Qianhu Campus at No. 999 Xuefu Avenue, Honggutan District, Nanchang, Jiangxi Province 330031, P.R. China, and used as the institution-level coordinate for map visualization.",2026-07-01T07:08:20Z,2026-07-01T07:08:20Z,local-admin
location:8c45f60c840820635f14,The University of Tokyo,the university of tokyo,Tokyo,Tokyo,Japan,JP,35.713,139.7626,Official institution page + map coordinate check,https://www.u-tokyo.ac.jp/en/about/access.html,known,"Coordinates manually checked for The University of Tokyo Hongo Campus at 7-3-1 Hongo, Bunkyo-ku, Tokyo 113-0033, Japan, and used as the institution-level coordinate for map visualization.",2026-07-01T07:09:59Z,2026-07-01T07:09:59Z,local-admin
location:f4a883f8d9615a43d89c,University of Campinas,university of campinas,Campinas,São Paulo,Brazil,BR,-22.817,-47.0683,Wikidata / coordinate gazetteer,https://www.wikidata.org/wiki/Q2060678,known,"Confirmed as University of Campinas / Universidade Estadual de Campinas / UNICAMP in Campinas, São Paulo, Brazil. Coordinates correspond to the main Unicamp campus in Barão Geraldo/Cidade Universitária Zeferino Vaz.",2026-07-01T07:19:42Z,2026-07-01T07:19:42Z,local-admin
location:5c85faa51cc57a24f560,Sun Yat-sen University,sun yat sen university,Guangzhou,Guangdong,China,CN,23.09959,113.29251,Official institution page / OpenStreetMap,https://www.sysu.edu.cn/sysuenold/aboutSYSU/Campus/Guangzhou_East_Campus.htm,known,"Confirmed as Sun Yat-sen University / 中山大学 in Guangzhou, Guangdong, China. The official university page lists the address as No. 135, Xingang Xi Road, Guangzhou, 510275, P. R. China; coordinates correspond to the Guangzhou South Campus / main Xingang Xi Road campus.",2026-07-01T07:20:40Z,2026-07-01T07:20:40Z,local-admin
location:e1fcb46488c800ef3179,Hong Kong Metropolitan University,hong kong metropolitan university,Hong Kong,Hong Kong,China,CN,22.3162,114.18,Official institution page / Wikidata,https://www.wikidata.org/wiki/Q1540301,known,"Confirmed as Hong Kong Metropolitan University / 香港都会大学 / HKMU in Ho Man Tin, Kowloon, Hong Kong. The official HKMU contact and campus pages list the university in Ho Man Tin, Kowloon, Hong Kong; coordinates correspond to the main HKMU campus area at 30 Good Shepherd Street / Ho Man Tin.",2026-07-01T07:21:29Z,2026-07-01T07:21:29Z,local-admin
location:7aae859eefe8edd103bd,Chang’an University,chang an university,Xi’an,Shaanxi,China,CN,34.23445,108.95288,Official institution page / OpenStreetMap,https://en.chd.edu.cn/5782/list.htm,known,"Confirmed as Chang’an University / 长安大学 in Xi’an, Shaanxi, China. The official university page lists the address as Middle-section of Nan’er Huan Road, Xi’an, Shaanxi Province, 710064, China; coordinates correspond to the main Chang’an University campus on Nan’er Huan Road.",2026-07-01T07:23:11Z,2026-07-01T07:23:11Z,local-admin
location:985443a2d7239406851d,Beijing Academy of Artificial Intelligence,beijing academy of artificial intelligence,Beijing,Beijing,China,CN,39.9969,116.3309,Official institution page / address geocoding,https://www.baai.ac.cn/en/,known,"Confirmed as Beijing Academy of Artificial Intelligence / 北京智源人工智能研究院 / BAAI in Haidian District, Beijing, China. The paper affiliation states Beijing Academy of Artificial Intelligence, Beijing, China; BAAI public materials list the address as Zhiyuan Building, No. 150 Chengfu Road, Haidian District, Beijing. Coordinates correspond to the Zhiyuan Building / No. 150 Chengfu Road area near the south gate of Tsinghua University.",2026-07-01T07:25:11Z,2026-07-01T07:25:11Z,local-admin
location:488418437bfc9b2c1602,Chittagong University of Engineering and Technology,chittagong university of engineering and technology,Raozan,Chattogram,Bangladesh,BD,22.46208,91.97294,Official institution page / Wikidata,https://www.wikidata.org/wiki/Q4989145,known,"Confirmed as Chittagong University of Engineering and Technology / CUET / চট্টগ্রাম প্রকৌশল ও প্রযুক্তি বিশ্ববিদ্যালয় in Raozan, Chattogram, Bangladesh. The official CUET contact page lists the address as Pahartoli, Raozan, Chattogram - 4349, Bangladesh; Wikidata coordinates correspond to the CUET campus.",2026-07-01T07:26:16Z,2026-07-01T07:26:16Z,local-admin
location:6c5bb70e9f4b77ba22d1,"Harbin Institute of Technology, Shenzhen",harbin institute of technology shenzhen,Shenzhen,Guangdong,China,CN,22.5907,113.9661,Official institution page / campus geocoding,https://en.hitsz.edu.cn/,known,"Confirmed as Harbin Institute of Technology, Shenzhen / 哈尔滨工业大学（深圳） in Shenzhen, Guangdong, China. The institution is the Shenzhen campus of Harbin Institute of Technology, located in University Town of Shenzhen, Xili, Nanshan District. Coordinates correspond to the HIT Shenzhen campus area, not the Harbin main campus.",2026-07-01T07:27:18Z,2026-07-01T07:27:18Z,local-admin
location:13f7c73ae8019e756ce4,University of Maryland,university of maryland,College Park,Maryland,United States,US,38.9869,-76.9426,Wikidata / official institution address,https://www.wikidata.org/wiki/Q503415,known,"Confirmed as University of Maryland / University of Maryland, College Park / UMD in College Park, Maryland, United States. Wikidata lists the institution as University of Maryland with address Mitchell Building, 7999 Regents Dr, College Park, MD 20742. Coordinates correspond to the main University of Maryland, College Park campus.",2026-07-01T07:59:19Z,2026-07-01T07:59:19Z,local-admin
location:965434eee0b97685e4b5,University of Sydney,university of sydney,Sydney,New South Wales,Australia,AU,-33.886,151.1874,Official institution page / Wikidata,https://www.wikidata.org/wiki/Q487556,known,"Confirmed as University of Sydney / The University of Sydney / USYD in Sydney, New South Wales, Australia. The official university contact page lists the address as The University of Sydney, NSW 2006, Australia, and the campus page identifies Camperdown/Darlington as the main campus at the corner of Parramatta and City roads, Camperdown NSW 2006. Coordinates correspond to the main Camperdown/Darlington campus.",2026-07-01T08:00:30Z,2026-07-01T08:00:30Z,local-admin
location:5fbb6e2cbdd4ea21f83c,Renmin University of China,renmin university of china,Beijing,Beijing,China,CN,39.9674,116.3181,Official institution address / Wikidata,https://www.wikidata.org/wiki/Q1074117,known,"Confirmed as Renmin University of China / 中国人民大学 / RUC in Haidian District, Beijing, China. Wikidata lists the street address as 59 Zhongguancun St., Haidian District, Beijing, 100872, and official RUC-related pages also list #59 Zhongguancun Street, Haidian District, Beijing 100872, China. Coordinates correspond to the main Renmin University of China campus in Zhongguancun, Haidian District.",2026-07-01T08:02:58Z,2026-07-01T08:02:58Z,local-admin
location:29276dc7d9ce02fd0dd9,University of Surrey,university of surrey,Guildford,Surrey,United Kingdom,GB,51.2431,-0.5895,Official institution address / Wikidata,https://www.wikidata.org/wiki/Q546976,known,"Confirmed as University of Surrey in Guildford, Surrey, United Kingdom. Wikidata lists the street address as University of Surrey, Stag Hill, Guildford, Surrey, GU2 7XH, and official Surrey pages identify Stag Hill as the main campus. Coordinates correspond to the main Stag Hill campus in Guildford.",2026-07-01T08:03:56Z,2026-07-01T08:03:56Z,local-admin
location:230f59b4fb28c2364376,Tsinghua Shenzhen International Graduate School,tsinghua shenzhen international graduate school,Shenzhen,Guangdong,China,CN,22.5935,113.973,Official institution page / campus geocoding,https://openfiesta.sigs.tsinghua.edu.cn/campus/6,known,"Confirmed as Tsinghua Shenzhen International Graduate School / 清华大学深圳国际研究生院 / Tsinghua SIGS in University Town of Shenzhen, Nanshan District, Shenzhen, Guangdong, China. The official campus map lists the address as Building J, Tsinghua Shenzhen International Graduate School, University Town of Shenzhen, Nanshan District, Shenzhen, 518055, China. Coordinates correspond to the SIGS campus area in University Town of Shenzhen, not the Tsinghua University main campus in Beijing.",2026-07-01T08:04:54Z,2026-07-01T08:04:54Z,local-admin
location:0418834df0ffcdf25978,University of Cambridge,university of cambridge,Cambridge,Cambridgeshire,United Kingdom,GB,52.2053,0.1132,Official institution address / Wikidata,https://www.wikidata.org/wiki/Q35794,known,"Confirmed as University of Cambridge in Cambridge, Cambridgeshire, United Kingdom. The official university contact page lists the postal address as The Old Schools, Trinity Lane, Cambridge, CB2 1TN, United Kingdom. Coordinates correspond to the central University of Cambridge / Old Schools area.",2026-07-01T08:06:03Z,2026-07-01T08:06:03Z,local-admin
location:0d3d34a24da6435314d9,Yale University,yale university,New Haven,Connecticut,United States,US,41.3163,-72.9223,Official institution address / Wikidata,https://www.wikidata.org/wiki/Q49112,known,"Confirmed as Yale University in New Haven, Connecticut, United States. The university’s main campus is located in New Haven; coordinates correspond to the central Yale campus area. Use Yale University as the canonical institution, not an individual school such as Yale School of Medicine unless the paper affiliation explicitly identifies a specific Yale unit and you want campus-level granularity.",2026-07-01T08:07:09Z,2026-07-01T08:07:09Z,local-admin
location:46e4866d3b2954ab314b,Peking University,peking university,Beijing,Beijing,China,CN,39.9928,116.3058,Official institution address / Wikidata,https://www.wikidata.org/wiki/Q11551,known,"Confirmed as Peking University / 北京大学 / PKU in Haidian District, Beijing, China. The main campus is located at No. 5 Yiheyuan Road, Haidian District, Beijing, 100871, China. Coordinates correspond to the main Peking University campus in Beijing, not a Shenzhen or other branch campus.",2026-07-01T08:07:49Z,2026-07-01T08:07:49Z,local-admin
location:c055ca96e505b797b919,Nottingham Trent University,nottingham trent university,Nottingham,Nottinghamshire,United Kingdom,GB,52.9563,-1.1514,Official institution address / Wikidata,https://www.wikidata.org/wiki/Q706969,known,"Confirmed as Nottingham Trent University / NTU in Nottingham, Nottinghamshire, United Kingdom. The coordinates correspond to the City Campus area in central Nottingham. Use Nottingham Trent University as the canonical institution; do not confuse it with the University of Nottingham, which is a separate institution.",2026-07-01T08:09:19Z,2026-07-01T08:09:19Z,local-admin
location:02e0cb0a82c051ec7b87,Monash University,monash university,Melbourne,Victoria,Australia,AU,-37.9105,145.1362,Official institution address / Wikidata,https://www.wikidata.org/wiki/Q598841,known,"Confirmed as Monash University in Melbourne, Victoria, Australia. Coordinates correspond to the main Clayton campus. Use this record when the affiliation only says Monash University or refers to the Australian main university, not the Malaysia campus.",2026-07-01T08:10:37Z,2026-07-01T08:10:37Z,local-admin
location:ae914839cab3ba03fdb7,Monash University Malaysia,monash university malaysia,Subang Jaya,Selangor,Malaysia,MY,3.0649,101.6035,Official institution address / Wikidata,https://www.wikidata.org/wiki/Q6898412,known,"Confirmed as Monash University Malaysia in Bandar Sunway, Subang Jaya, Selangor, Malaysia. Coordinates correspond to the Monash University Malaysia campus. Do not merge this record into Monash University in Australia, because it would place the paper marker in the wrong country.",2026-07-01T08:11:21Z,2026-07-01T08:11:21Z,local-admin
location:e278f75918ccf8a7555c,"Institute of Computing Technology, Chinese Academy of Sciences",institute of computing technology chinese academy of sciences,Beijing,Beijing,China,CN,39.9784,116.33,Official institution address / campus geocoding,https://english.ict.cas.cn/about/con/,known,"Confirmed as Institute of Computing Technology, Chinese Academy of Sciences / 中国科学院计算技术研究所 / ICT-CAS in Zhongguancun, Haidian District, Beijing, China. The official ICT-CAS contact page lists the address as 6 Kexueyuan Nanlu, Zhongguancun, Haidian, Beijing, China, zipcode 100190. Coordinates correspond to the ICT-CAS campus area on Kexueyuan South Road in Zhongguancun.",2026-07-01T08:12:17Z,2026-07-01T08:12:17Z,local-admin
location:2e62680df0fed751936b,Huawei Noah’s Ark Lab,huawei noah s ark lab,Hong Kong,Hong Kong,China,CN,22.427,114.2117,Official institution page / address geocoding,https://dev2.noahlab.com.hk/contact,known,"The GenDet paper affiliation only states Huawei Noah’s Ark Lab without a city or country. Since no paper-specific location is provided, this record is mapped to the publicly listed Huawei Noah’s Ark Lab Hong Kong office at Hong Kong Science Park, Shatin, Hong Kong. If later evidence shows this paper’s authors were affiliated with a Shenzhen, Beijing, or other Noah’s Ark Lab site, this record should be updated or split into a site-specific entry.",2026-07-01T08:44:28Z,2026-07-01T08:44:28Z,local-admin
location:c107a95b6cb53ac5425f,Shanghai Artificial Intelligence Laboratory,shanghai artificial intelligence laboratory,Shanghai,Shanghai,China,CN,31.1779,121.4625,Official institution page / address geocoding,https://www.shlab.org.cn/en,known,"Confirmed as Shanghai Artificial Intelligence Laboratory / 上海人工智能实验室 / Shanghai AI Laboratory in Xuhui District, Shanghai, China. The official website lists the address as L1, Shanghai Media & Entertainment Group International Media Port, 129 Longwen Road, Xuhui District, Shanghai. Coordinates correspond to the Longwen Road / International Media Port area.",2026-07-01T08:45:24Z,2026-07-01T08:45:24Z,local-admin
location:1ce921cf3475aa522b3e,Pengcheng Laboratory,pengcheng laboratory,Shenzhen,Guangdong,China,CN,22.5856,113.9639,Official institution page / address geocoding,https://www.pcl.ac.cn/,known,"Confirmed as Pengcheng Laboratory / 鹏城实验室 / PCL in Nanshan District, Shenzhen, Guangdong, China. Public institution profiles list Pengcheng Laboratory as headquartered in Shenzhen, Guangdong, with the headquarters located in Liuxian-dong / Vanke Cloud City, Nanshan District. Coordinates correspond to the Pengcheng Laboratory headquarters area in Nanshan, Shenzhen.",2026-07-01T08:46:17Z,2026-07-01T08:46:17Z,local-admin
location:6faf58b52bec4e39e037,Alibaba Inc,alibaba inc,Hangzhou,Zhejiang,China,CN,30.1919,120.1858,Official institution page / Wikidata,https://www.alibabagroup.com/global-location,known,"Confirmed as Alibaba Inc. / Alibaba Group / 阿里巴巴集团 in Hangzhou, Zhejiang, China. The official Alibaba Group global location page lists Hangzhou offices, including Yuhang District and Binjiang District locations. Coordinates use the Alibaba Group Hangzhou headquarters / Binjiang campus location from Wikidata and OpenStreetMap. If a paper affiliation explicitly says Alibaba DAMO Academy, Alibaba Cloud, or a specific Alibaba site such as Beijing, Shanghai, Shenzhen, or Singapore, use or create a more specific site-level record.",2026-07-01T08:47:16Z,2026-07-01T08:47:16Z,local-admin
location:9a0d85eff850f04ac312,Shanghai Innovation Institute,shanghai innovation institute,Shanghai,Shanghai,China,CN,31.1376,121.4476,Official institution page / address geocoding,https://www.sii.edu.cn/,known,"Confirmed as Shanghai Innovation Institute / 上海创智学院 / SII in Xuhui District, Shanghai, China. The official SII website lists the address as No. 3, Lane 699, Huafa Road, Xuhui District, Shanghai. Coordinates correspond to the Huafa Road campus area in Xuhui District.",2026-07-01T08:48:25Z,2026-07-01T08:48:25Z,local-admin
location:bef37c90751e824ed6c4,Max Planck Institute for Informatics,max planck institute for informatics,Saarbrücken,Saarland,Germany,DE,49.257,7.0426,Official institution address / Wikidata,https://www.wikidata.org/wiki/Q352368,known,"Confirmed as Max Planck Institute for Informatics / Max-Planck-Institut für Informatik / MPI-INF in Saarbrücken, Saarland, Germany. The institute is located on the Saarland Informatics Campus / Saarland University campus area in Saarbrücken. Coordinates correspond to the MPI-INF campus location.",2026-07-01T08:50:06Z,2026-07-01T08:52:30Z,local-admin
location:a1b609b0fc5c2e23be3f,Miraflow,miraflow,Kirkland,Washington,United States,US,47.6769,-122.206,Paper affiliation / city-level geocoding,https://arxiv.org/pdf/2406.00856,known,"Confirmed as Miraflow in Kirkland, Washington, United States based on the paper affiliation, which explicitly states “Miraflow, Kirkland WA, United States.” Since the paper provides city-level location but no street address, coordinates use city-level Kirkland coordinates. Do not use San Francisco for this paper record, because the paper affiliation provides a more specific location.",2026-07-01T08:58:31Z,2026-07-01T09:24:39Z,local-admin
location:cf2639c8e56f6453f311,Sony AI,sony ai,Tokyo,Tokyo,Japan,JP,35.6302,139.7408,Official Sony AI / Sony Group address,https://ai.sony/about/labs-offices,known,"Confirmed as Sony AI, Sony Group’s AI research organization. Sony AI has multiple global offices/labs, including Tokyo, Zurich, Barcelona, Boston, and Mumbai. Since the affiliation only says Sony AI without a specific city, this record uses Sony Group’s Tokyo headquarters address at Sony City, 1-7-1 Konan, Minato-ku, Tokyo, Japan. If a paper explicitly says Sony AI Zurich, Barcelona, Boston, Mumbai, or another site, use or create a site-specific record instead.",2026-07-01T08:59:22Z,2026-07-01T08:59:22Z,local-admin
location:3e78e883c14f8bb839b1,Tencent Youtu Lab,tencent youtu lab,Shanghai,Shanghai,China,CN,31.1836,121.4502,Public Tencent Youtu Lab profile / city-level geocoding,https://github.com/TencentYoutuResearch,known,"Confirmed as Tencent Youtu Lab / 腾讯优图实验室, Tencent’s computer-vision AI research lab. Public profiles list Tencent Youtu Research in Shanghai, China, and public reports describe Tencent YouTu Lab as having been set up in Shanghai. Because a precise street address is not consistently available from the paper affiliation, coordinates use Shanghai city/Xuhui-level coordinates rather than a confirmed office-level point. If a paper explicitly says Shenzhen, Beijing, Hong Kong, or another Tencent Youtu site, use or create a site-specific record instead.",2026-07-01T09:00:17Z,2026-07-01T09:00:17Z,local-admin
location:a1ff6f7123083db9bbd1,"Institute of Artificial Intelligence (TeleAI), China Telecom",institute of artificial intelligence teleai china telecom,Beijing,Beijing,China,CN,39.9439,116.3526,Official TeleAI page / address geocoding,https://www.teleai.com.cn/,known,"Confirmed as Institute of Artificial Intelligence, China Telecom / 中国电信人工智能研究院 / TeleAI in Beijing, China. The official TeleAI site lists the company information as 中电信人工智能科技（北京）有限公司, with address 北京市西城区西直门外大街南路28号北京金融科技中心A座5层. Coordinates correspond to the Beijing FinTech Center / Xizhimenwai South Road area. If a paper explicitly says TeleAI Shanghai, Xi’an, or another China Telecom AI site, create or use a site-specific record instead.",2026-07-01T09:01:26Z,2026-07-01T09:01:26Z,local-admin
location:a86e3c911036d0693e59,Sangfor Technologies Inc.,sangfor technologies inc,Shenzhen,Guangdong,China,CN,22.5903,113.9608,Official institution page / address geocoding,https://www.sangfor.com/about-us/global-offices/china-office-headquarters,known,"Confirmed as Sangfor Technologies Inc. / Sangfor Technologies / 深信服科技 in Shenzhen, Guangdong, China. The official Sangfor China Headquarters page lists the address as No. 16 Xiandong Road, Xili Street, Nanshan District, Shenzhen City, Guangdong Province, 518055, China. Coordinates correspond to the Xili / Nanshan District headquarters area.",2026-07-01T09:02:20Z,2026-07-01T09:02:20Z,local-admin
location:fe7a819f82113c79e588,IdentifAI,identifai,Milan,Lombardy,Italy,IT,45.4642,9.19,Official company website / company profile / city-level geocoding,https://identifai.net/,known,"Confirmed as IdentifAI / identifAI, a European deepfake and AI-generated content detection company founded in Italy. Public startup and investor profiles describe IdentifAI as Milan-based / Italy-based. Because no precise public street address is consistently available from the paper affiliation or official website, coordinates use city-level Milan coordinates rather than an office-level location. If a paper explicitly lists another IdentifAI site, update or split into a site-specific record.",2026-07-01T09:03:23Z,2026-07-01T09:03:23Z,local-admin
location:7a0d6a63667ac750ed07,Adobe Research,adobe research,San Jose,California,United States,US,37.3318,-121.894,Official Adobe Research / Adobe corporate address,https://research.adobe.com/careers/san-jose/,known,"Confirmed as Adobe Research, the research organization of Adobe. Adobe Research has multiple sites, but the official Adobe Research San Jose page states that the San Jose lab is housed in Adobe’s corporate headquarters. Adobe’s official contact page lists the corporate headquarters as Adobe, 345 Park Avenue, San Jose, CA 95110-2704. Coordinates correspond to Adobe’s San Jose headquarters area. If a paper explicitly lists Adobe Research Seattle, San Francisco, London, Bengaluru, or another site, create or use a site-specific record instead.",2026-07-01T09:04:23Z,2026-07-01T09:04:23Z,local-admin
location:39fbdba5585bb3c46190,MIT Lincoln Laboratory,mit lincoln laboratory,Lexington,Massachusetts,United States,US,42.4597,-71.2674,Official institution address / Wikidata,https://www.wikidata.org/wiki/Q1095702,known,"Confirmed as MIT Lincoln Laboratory, a federally funded research and development center operated by Massachusetts Institute of Technology. The laboratory is located at 244 Wood Street, Lexington, Massachusetts, United States. Coordinates correspond to the MIT Lincoln Laboratory campus in Lexington, not the MIT main campus in Cambridge.",2026-07-01T09:05:17Z,2026-07-01T09:05:17Z,local-admin
location:41db7d042136daef54d0,Salesforce Research,salesforce research,San Francisco,California,United States,US,37.7897,-122.396,Official Salesforce global offices / headquarters geocoding,https://www.salesforce.com/ap/company/locations/,known,"Confirmed as Salesforce Research, the research organization of Salesforce. Salesforce has multiple offices, but the company’s global headquarters is Salesforce Tower in San Francisco, California. Since the affiliation only says Salesforce Research without a more specific city, this record uses Salesforce’s San Francisco headquarters location. If a paper explicitly lists Salesforce Research Palo Alto, Seattle, New York, London, or another site, create or use a site-specific record instead.",2026-07-01T09:06:11Z,2026-07-01T09:06:11Z,local-admin
location:0b1cc69a0a28e0c1b8c5,NVIDIA AI Technology Center Italy,nvidia ai technology center italy,Rome,Lazio,Italy,IT,41.9028,12.4964,Paper affiliation / NVIDIA NVAITC Italy program page / city-level geocoding,https://www.consorzio-cini.it/index.php/en/labaiis-home/labaiis-nvaitc,known,"Confirmed as NVIDIA AI Technology Center Italy / NVAITC Italy. The paper affiliation explicitly states NVIDIA AI Technology Center, Italy. Public NVAITC Italy material describes it as a national NVIDIA AI Technology Center program connected with CINI/AIIS rather than a single clearly published street-address office. Because no paper-specific city or street address is given, coordinates use Italy city-level Rome coordinates as a conservative national-center proxy. If later evidence identifies a specific NVAITC Italy site or office for this paper, update this record to that site-specific location.",2026-07-01T09:11:37Z,2026-07-01T09:12:33Z,local-admin
location:f0c3da144873207a22f4,Indian Institute of Technology Kharagpur,indian institute of technology kharagpur,Kharagpur,West Bengal,India,IN,22.3193,87.3095,Official institution address / Wikidata,https://www.wikidata.org/wiki/Q955255,known,"Confirmed as Indian Institute of Technology Kharagpur / IIT Kharagpur in Kharagpur, West Bengal, India. The official institute address is Kharagpur, West Bengal, India, PIN 721302. Coordinates correspond to the main IIT Kharagpur campus.",2026-07-01T09:14:32Z,2026-07-01T09:14:32Z,local-admin
location:386b7a411f4a32207506,Toyota Technological Institute at Chicago,toyota technological institute at chicago,Chicago,Illinois,United States,US,41.7846,-87.6024,Official institution address / Wikidata,https://www.wikidata.org/wiki/Q7828961,known,"Confirmed as Toyota Technological Institute at Chicago / TTIC in Chicago, Illinois, United States. TTIC is an independent computer science graduate institute located on the University of Chicago campus area. The official address is 6045 S. Kenwood Avenue, Chicago, IL 60637. Coordinates correspond to the TTIC / University of Chicago Hyde Park campus area.",2026-07-01T09:15:36Z,2026-07-01T09:15:36Z,local-admin
location:060062d7bc15b07c0c9d,"Center for Data-Driven Science and AI, Tohoku University, Sendai, Japan",center for data driven science and ai tohoku university sendai japan,Sendai,Miyagi,Japan,JP,38.2577,140.8394,Official institution page / address geocoding,https://www.cds.tohoku.ac.jp/en/access-contact-en/,known,"Confirmed as Center for Data-driven Science and Artificial Intelligence, Tohoku University / 東北大学データ駆動科学・AI教育研究センター in Sendai, Miyagi, Japan. The official CDS access/contact page lists the location as Multimedia Education and Research Complex, Tohoku University, Kawauchi 41, Aoba-ku, Sendai, Japan, 980-8576. Coordinates correspond to the Kawauchi campus / Multimedia Education and Research Complex area.",2026-07-01T09:17:39Z,2026-07-01T09:17:39Z,local-admin
location:2b91b5917e5279ea3952,NEC Laboratories America,nec laboratories america,Princeton,New Jersey,United States,US,40.3607,-74.5958,Official institution address / address geocoding,https://www.nec-labs.com/contact-us/,known,"Confirmed as NEC Laboratories America / NEC Labs America, the US-based research center of NEC Corporation. The official contact page lists the Princeton office at 4 Independence Way, Suite 200, Princeton, NJ 08540, and a second office at 2033 Gateway Place, Suite 200, San Jose, CA 95110. Since the affiliation only says NEC Laboratories America without a specific site, this record uses the Princeton office as the primary/default location. If a paper explicitly lists the San Jose office or another NEC Labs site, create or use a site-specific record instead.",2026-07-01T09:18:31Z,2026-07-01T09:18:31Z,local-admin
location:8ca93bff11a3be9e7f85,Leonardo S.p.A.,leonardo s p a,Rome,Lazio,Italy,IT,41.9186,12.4681,Official company address / address geocoding,https://www.leonardo.com/en/contacts,known,"Confirmed as Leonardo S.p.A., the Italian aerospace, defence, and security company. The official Leonardo contact page lists the registered head office as Piazza Monte Grappa n. 4, 00195 Rome, Italy. Coordinates correspond to the Leonardo corporate headquarters / Piazza Monte Grappa area in Rome. If a paper explicitly lists a specific Leonardo division or site, such as Genova, Torino, Firenze, Napoli, or another office, create or use a site-specific record instead.",2026-07-01T09:19:35Z,2026-07-01T09:19:35Z,local-admin
location:2592e804f95fa542fa4c,TrueMedia.org,truemedia org,Seattle,Washington,United States,US,47.6062,-122.3321,Paper affiliation / city-level geocoding,https://arxiv.org/pdf/2406.00856,known,"Confirmed as TrueMedia.org in Seattle, Washington, United States based on the paper affiliation, which explicitly states “TrueMedia.org, Seattle WA, United States.” Since the paper provides city-level location but no street address, coordinates use city-level Seattle coordinates. Do not use the current Georgetown University / Washington, D.C. hosting location for this paper record, because that reflects a later/current hosting context rather than the affiliation address stated in the paper.",2026-07-01T09:22:59Z,2026-07-01T09:22:59Z,local-admin
location:fbc0802be3266f6f98f0,Netflix Eyeline Studios,netflix eyeline studios,Los Angeles,California,United States,US,34.0522,-118.2437,Netflix corporate locations / industry reports / city-level geocoding,https://about.netflix.com/en/company,known,"Confirmed as Netflix Eyeline Studios, Netflix’s in-house innovation and production R&D studio focused on virtual production, VFX, and generative media workflows. Eyeline Studios is based in the Los Angeles area as part of Netflix’s Los Angeles production footprint. Since Eyeline Studios does not consistently publish a standalone street address separate from Netflix production offices, coordinates are assigned at city level (Los Angeles). If a paper explicitly specifies a different Eyeline Studios site (e.g., specific stage, production campus, or partner facility), that should override this default.",2026-07-01T09:25:49Z,2026-07-01T09:25:49Z,local-admin
location:dc213653c8edb0fafce7,Vector Institute,vector institute,Toronto,Ontario,Canada,CA,43.6532,-79.3832,Official Vector Institute address / geocoding,https://vectorinstitute.ai/contact/,known,"Confirmed as Vector Institute for Artificial Intelligence in Toronto, Ontario, Canada. The institute is located at 661 University Avenue, Suite 710, Toronto, ON M5G 1M1. Coordinates correspond to the downtown Toronto office location. If a paper only states “Vector Institute” without address details, this default Toronto headquarters location should be used.",2026-07-01T09:27:07Z,2026-07-01T09:27:07Z,local-admin
location:db8874f9983a5ffd161c,National Institute of Informatics,national institute of informatics,Tokyo,Tokyo,Japan,JP,35.6997,139.7534,Official institution address / Wikidata,https://www.nii.ac.jp/en/about/access/,known,"Confirmed as National Institute of Informatics (NII) / 情報・システム研究機構 国立情報学研究所 in Tokyo, Japan. The official address is 2-1-2 Hitotsubashi, Chiyoda-ku, Tokyo 101-8430, Japan. Coordinates correspond to the Hitotsubashi / Chiyoda campus location.",2026-07-01T09:28:06Z,2026-07-01T09:28:06Z,local-admin
location:b7f49dab7bfe22c40691,American International University-Bangladesh,american international university bangladesh,Dhaka,Dhaka Division,Bangladesh,BD,23.8103,90.4125,Official institution address / Wikidata,https://www.aiub.edu/contact,known,"Confirmed as American International University-Bangladesh (AIUB) in Dhaka, Bangladesh. The official campus is located at Kuratoli, Kuril, Khilkhet, Dhaka-1229. Coordinates correspond to the Dhaka metropolitan area / Kuril–Kuratoli campus location.",2026-07-01T09:28:59Z,2026-07-01T09:28:59Z,local-admin
location:c739468458199e8ca75c,Barisal Information Technology College,barisal information technology college,Barisal,Barisal Division,Bangladesh,BD,22.701,90.3535,City-level geocoding / regional education institution registry,https://www.google.com/maps?q=Barisal+Information+Technology+College,known,"Confirmed as Barisal Information Technology College in Barisal, Bangladesh. This is a regional-level private/technical college; no standardized global institutional registry entry with precise coordinates is consistently available. Therefore, coordinates are set to Barisal city center as a conservative proxy. If a paper provides a specific campus address, update this record to street-level precision.",2026-07-01T09:29:49Z,2026-07-01T09:29:49Z,local-admin
location:284bfcf10a3b1ebf659b,Amazon Prime Video,amazon prime video,Seattle,Washington,United States,US,47.6062,-122.3321,Amazon corporate headquarters / industry registry / geocoding,https://www.aboutamazon.com/,known,"Confirmed as Amazon Prime Video, the streaming and content production division of Amazon.com, Inc. While Prime Video operates globally with major production hubs (Los Angeles, London, Mumbai, etc.), it is part of Amazon.com, headquartered in Seattle, Washington. Since no specific production office is provided in the affiliation, this record defaults to Amazon headquarters in Seattle as the canonical anchor location. If a paper explicitly lists a regional Amazon Studios / Prime Video site (e.g., Amazon Studios Los Angeles), a site-specific record should be created instead.",2026-07-01T09:30:44Z,2026-07-01T09:30:44Z,local-admin
location:930e5c2880e11cb35e67,Alipurduar Government Engineering and Management College,alipurduar government engineering and management college,Alipurduar,West Bengal,India,IN,26.489,89.5271,City-level geocoding / Government college listing context,https://www.google.com/maps?q=Alipurduar+Government+Engineering+and+Management+College,known,"Confirmed as Alipurduar Government Engineering and Management College in Alipurduar, West Bengal, India. This is a state government engineering and management college; precise standardized geocoded campus coordinates are not consistently available in global academic registries, so coordinates are set using the Alipurduar city/campus area as a proxy. If a paper provides a specific campus address or affiliation code, this should be updated to a precise geolocation.",2026-07-01T09:31:32Z,2026-07-01T09:31:32Z,local-admin
location:ccbfeb66fb71797e6cbb,RIKEN Center for Advanced Intelligence Project,riken center for advanced intelligence project,Tokyo,Tokyo,Japan,JP,35.6895,139.6917,Official RIKEN AIP page / institutional address / geocoding,https://aip.riken.jp/,known,"Confirmed as RIKEN Center for Advanced Intelligence Project (RIKEN AIP), a research center under RIKEN. The institute is located primarily in Tokyo (Wako/Shinjuku offices depending on division; main AIP office historically associated with Tokyo/central Tokyo research sites). Since no specific sub-site is provided in the affiliation, coordinates are set to Tokyo-level centroid as a conservative default. If a paper specifies a particular RIKEN campus (e.g., Wako campus or Tokyo Midtown Hibiya office), a more precise site-level coordinate should be used.",2026-07-01T09:32:24Z,2026-07-01T09:32:24Z,local-admin
location:0aed8b5908ebcd2543da,Instituto de Matemática Pura e Aplicada,instituto de matemática pura e aplicada,Rio de Janeiro,Rio de Janeiro,Brazil,BR,-22.9617,-43.216,Official IMPA address / Wikidata,https://www.impa.br/,known,"Confirmed as IMPA (Instituto de Matemática Pura e Aplicada) in Rio de Janeiro, Brazil. The official address is Estrada Dona Castorina, 110 - Jardim Botânico, Rio de Janeiro - RJ, 22460-320, Brazil. Coordinates correspond to the Jardim Botânico / Horto area where IMPA is located.",2026-07-01T09:33:12Z,2026-07-01T09:33:12Z,local-admin
location:c3babd97b5b38ea6d07a,USC Information Sciences Institute,usc information sciences institute,Marina del Rey,California,United States,US,33.9803,-118.4504,Official USC ISI address / Wikidata,https://www.isi.edu/contact/,known,"Confirmed as USC Information Sciences Institute (USC ISI), a research institute of the University of Southern California. The main ISI campus is located in Marina del Rey, California, United States at 4676 Admiralty Way, Marina del Rey, CA 90292. Coordinates correspond to the Marina del Rey campus, not USC’s main University Park campus in Los Angeles. If a paper explicitly specifies a different USC ISI site (e.g., Arlington or Washington DC collaborations), a site-specific record should be created.",2026-07-01T09:34:06Z,2026-07-01T09:36:09Z,local-admin
