map_record_id,canonical_paper_identity,title,year,institution,institution_id,institution_source,latitude,longitude,in_scope,publication_type,venue_type,venue_id,venue_label,trace_result
openalex-candidate-6876f9a15b8d8b2b,openalex:https://openalex.org/w3012033723,Leveraging Frequency Analysis for Deep Fake Image Recognition,2020,Ruhr University Bochum,institution:8f8dd64c6339c8ff,automatic_fallback,51.48165,7.21648,True,conference,conference,venue:icml:main,Conference · International Conference on Machine Learning (ICML),valid baseline-only marker absent from current partial source snapshot
openalex-candidate-12c6b08226c44733,openalex:https://openalex.org/w4385800597,Open Set Classification of GAN-based Image Manipulations via a ViT-based Hybrid Architecture,2023,University of Siena,institution:65dbfd1e022f02e2,automatic_fallback,43.31821823120117,11.330639839172363,True,conference,conference,venue:ieee-cvf-conference-on-computer-vision-and-pattern-recognition:main,Conference · IEEE/CVF Conference on Computer Vision and Pattern Recognition (CVPRW),valid baseline-only marker absent from current partial source snapshot
openalex-candidate-51b82c918c7e867b,openalex:https://openalex.org/w3012472557,Detecting and Simulating Artifacts in GAN Fake Images,2019,Columbia University,institution:17bf653107a56b33,automatic_fallback,40.71427,-74.00597,True,preprint,workshop,venue:wifs:main,Workshop · IEEE International Workshop on Information Forensics and Security (WIFS),valid baseline-only marker absent from current partial source snapshot
openalex-candidate-5eab5059aba1c983,openalex:https://openalex.org/w3034577585,CNN-Generated Images Are Surprisingly Easy to Spot… for Now,2020,Berkeley College,institution:8448eafa665a5096,automatic_fallback,40.71427,-74.00597,True,conference,conference,venue:cvpr:main,Conference · IEEE/CVF Conference on Computer Vision and Pattern Recognition (CVPR),valid baseline-only marker absent from current partial source snapshot
openalex-candidate-8653f73a606c9570,openalex:https://openalex.org/w3034864980,Watch your Up-Convolution: CNN Based Generative Deep Neural Networks are Failing to Reproduce Spectral Distributions,2020,Heidelberg University,institution:f904c5dbc038c1df,automatic_fallback,49.40768,8.69079,True,journal,journal,venue:opus-hso-offenburg-university-of-applied-sciences:main,Journal · Opus-HSO (Offenburg University of Applied Sciences),valid baseline-only marker absent from current partial source snapshot
openalex-candidate-ced4670d6f25ee48,openalex:https://openalex.org/w2985484909,Fourier Spectrum Discrepancies in Deep Network Generated Images,2019,Texas A&M University,institution:4e140b5268efc364,automatic_fallback,30.62798,-96.33441,True,preprint,preprint,venue:arxiv:main,Preprint · arXiv,valid baseline-only marker absent from current partial source snapshot
openalex-candidate-2f748826e528c7c4,openalex:https://openalex.org/w3187526215,Beyond the Spectrum: Detecting Deepfakes via Re-Synthesis,2021,Helmholtz Center for Information Security,institution:6f14a665aa77ba34,automatic_fallback,49.23262023925781,7.009819984436035,True,conference,conference,venue:thirtieth-international-joint-conference-on-artificial-intelligence:main,Conference · Thirtieth International Joint Conference on Artificial Intelligence,valid baseline-only marker absent from current partial source snapshot
openalex-candidate-39db27838e50b6bb,openalex:https://openalex.org/w4313189772,Detecting Generated Images by Real Images,2022,Chongqing University of Posts and Telecommunications,institution:7e10613327a4e264,automatic_fallback,29.560260772705078,106.55770874023438,True,book,book,venue:lncs:main,Book · Lecture Notes in Computer Science (LNCS),valid baseline-only marker absent from current partial source snapshot
openalex-candidate-34ad5f2c322e90c0,openalex:https://openalex.org/w3196551054,BiHPF: Bilateral High-Pass Filters for Robust Deepfake Detection,2022,Samsung (South Korea),institution:457423605fa485bc,automatic_fallback,37.566,126.9784,True,conference,conference,venue:wacv:main,Conference · IEEE/CVF Winter Conference on Applications of Computer Vision (WACV),valid baseline-only marker absent from current partial source snapshot
openalex-candidate-68a7fb8fb05ec09c,openalex:https://openalex.org/w4386071953,Towards Universal Fake Image Detectors that Generalize Across Generative Models,2023,University of Wisconsin-Madison,institution:3e2e527953176c93,automatic_fallback,43.07305,-89.40123,True,conference,conference,venue:cvpr:main,Conference · IEEE/CVF Conference on Computer Vision and Pattern Recognition (CVPR),valid baseline-only marker absent from current partial source snapshot
openalex-candidate-aa40e42eb21b2b46,openalex:https://openalex.org/w4390191016,Detecting Images Generated by Deep Diffusion Models using their Local Intrinsic Dimensionality,2023,Fraunhofer Institute for Industrial Mathematics,institution:42c60ebb24e9f839,automatic_fallback,49.443,7.77161,True,conference,conference,venue:ieee-cvf-international-conference-on-computer-vision:main,Conference · IEEE/CVF International Conference on Computer Vision (ICCVW),valid baseline-only marker absent from current partial source snapshot
openalex-candidate-dbdc880272c6e95d,openalex:https://openalex.org/w4388002730,Exposing fake images generated by text-to-image diffusion models,2023,City University of Hong Kong,institution:ec71dc4340659fd9,automatic_fallback,22.2783203125,114.17469024658203,True,journal,journal,venue:pattern-recognition-letters:main,Journal · Pattern Recognition Letters,valid baseline-only marker absent from current partial source snapshot
openalex-candidate-abbea7654cd9bdbb,openalex:https://openalex.org/w4398184526,Parents and Children: Distinguishing Multimodal Deepfakes from Natural Images,2024,University of Modena and Reggio Emilia,institution:117fcda9a6399108,automatic_fallback,44.64783,10.92539,True,journal,journal,venue:acm-transactions-on-multimedia-computing-communications-and-applications:main,Journal · ACM Transactions on Multimedia Computing Communications and Applications,valid baseline-only marker absent from current partial source snapshot
openalex-candidate-da5def77a678fdcb,openalex:https://openalex.org/w4393379633,Unsupervised Generative Fake Image Detector,2024,Hangzhou Dianzi University,institution:07d62a903f84afcd,automatic_fallback,30.293649673461914,120.16142272949219,True,journal,journal,venue:ieee-transactions-on-circuits-and-systems-for-video-technology:main,Journal · IEEE Transactions on Circuits and Systems for Video Technology,valid baseline-only marker absent from current partial source snapshot
openalex-candidate-f7888db659be7a0c,openalex:https://openalex.org/w4376461282,CSC-Net: Cross-Color Spatial Co-Occurrence Matrix Network for Detecting Synthesized Fake Images,2023,"Institute of Information Engineering, Chinese Academy of Sciences",institution:cee70184073782c7,automatic_fallback,39.9075,116.39723,True,journal,journal,venue:ieee-transactions-on-cognitive-and-developmental-systems:main,Journal · IEEE Transactions on Cognitive and Developmental Systems,valid baseline-only marker absent from current partial source snapshot
openalex-candidate-7b63e7be5c15dd38,openalex:https://openalex.org/w4395447483,MMGANGuard: A Robust Approach for Detecting Fake Images Generated by GANs Using Multi-Model Techniques,2024,National University of Computer and Emerging Sciences,institution:18a199cf02e2dc6e,automatic_fallback,33.72148132324219,73.04328918457031,True,journal,journal,venue:ieee-access:main,Journal · IEEE Access,valid baseline-only marker absent from current partial source snapshot
openalex-candidate-5a35202878d6f0bd,openalex:https://openalex.org/w4391433395,MDTL-NET: Computer-generated image detection based on multi-scale deep texture learning,2024,City University of Hong Kong,institution:ec71dc4340659fd9,automatic_fallback,22.2783203125,114.17469024658203,True,journal,journal,venue:expert-systems-with-applications:main,Journal · Expert Systems with Applications,valid baseline-only marker absent from current partial source snapshot
openalex-candidate-9293a5f0cc0e9ecc,openalex:https://openalex.org/w4394624427,Enhancing the Generalization of Synthetic Image Detection Models through the Exploration of Features in Deep Detection Models,2024,Shahid Beheshti University,institution:2e47d59ad1e8d5a4,automatic_fallback,35.69439,51.42151,True,conference,conference,venue:iranian-3rd-international-machine-vision-and-image-processing-conference:main,Conference · Iranian/3rd International Machine Vision and Image Processing Conference (MVIP),valid baseline-only marker absent from current partial source snapshot
openalex-candidate-756b159fb6692693,openalex:https://openalex.org/w4393375171,A guided-based approach for deepfake detection: RGB-depth integration via features fusion,2024,Sapienza University of Rome,institution:977430a4473aa4b0,automatic_fallback,41.89193,12.51133,True,journal,journal,venue:pattern-recognition-letters:main,Journal · Pattern Recognition Letters,valid baseline-only marker absent from current partial source snapshot
openalex-candidate-19b046a4317999d4,openalex:https://openalex.org/w4405945632,Addressing Diffusion Model Based Counter-Forensic Image Manipulation for Synthetic Image Detection,2024,National Institute of Technology Karnataka,institution:12fe4f34c1ed5053,automatic_fallback,12.91723,74.85603,True,conference,conference,venue:indian-conference-on-computer-vision-graphics-and-image-processing:main,Conference · Indian Conference on Computer Vision Graphics and Image Processing,valid baseline-only marker absent from current partial source snapshot
openalex-candidate-ae9d56afde26fce3,openalex:https://openalex.org/w4402594796,Robust CLIP-Based Detector for Exposing Diffusion Model-Generated Images,2024,Purdue University West Lafayette,institution:312d37d9636306c2,automatic_fallback,40.42587,-86.90807,True,conference,conference,venue:ieee-international-conference-on-advanced-video-and-signal-based-surveillance:main,Conference · IEEE International Conference on Advanced Video and Signal Based Surveillance (AVSS),valid baseline-only marker absent from current partial source snapshot
openalex-candidate-339e1d1ce1424d2f,openalex:https://openalex.org/w3147384726,A Closer Look at Fourier Spectrum Discrepancies for CNN-generated Images Detection,2021,Singapore University of Technology and Design,institution:6dd3ce9e0d5fd1ab,automatic_fallback,1.28967,103.85007,True,conference,conference,venue:cvpr:main,Conference · IEEE/CVF Conference on Computer Vision and Pattern Recognition (CVPR),valid baseline-only marker absent from current partial source snapshot
openalex-candidate-dae59ecf24556992,openalex:https://openalex.org/w4393610334,TWIGMA: A dataset of AI-Generated Images with Metadata From Twitter,2024,Stanford University,institution:ed72534d79b73fac,automatic_fallback,37.42411,-122.16608,True,preprint,preprint,venue:zenodo:main,Preprint · Zenodo,valid baseline-only marker absent from current partial source snapshot
openalex-candidate-03a22903db314223,openalex:https://openalex.org/w4409262697,Detecting Origin Attribution for Text-to-Image Diffusion Models,2025,California University of Pennsylvania,institution:d0cac2bc9207e50f,automatic_fallback,40.06563186645508,-79.89170837402344,True,conference,conference,venue:wacv:main,Conference · IEEE/CVF Winter Conference on Applications of Computer Vision (WACV),valid baseline-only marker absent from current partial source snapshot
openalex-candidate-b54520cabc3f0606,openalex:https://openalex.org/w7125951995,Transferable Dual-Domain Feature Importance Attack Against AI-Generated Image Detector,2026,Communication University of China,institution:157163d25dac880f,automatic_fallback,39.907501220703125,116.39723205566406,True,journal,journal,venue:ieee-signal-processing-letters:main,Journal · IEEE Signal Processing Letters,valid baseline-only marker absent from current partial source snapshot
openalex-candidate-6774627fefbe0027,openalex:https://openalex.org/w7164742316,"Interpol review of detection of AI-generated image and video deepfakes, 2022-2025",2026,Netherlands Forensic Institute,institution:bda289c20f284717,automatic_fallback,52.044639587402344,4.358749866485596,True,journal,journal,venue:forensic-science-international-synergy:main,Journal · Forensic Science International Synergy,valid baseline-only marker absent from current partial source snapshot
openalex-candidate-4fc5d76c4c1dde8a,openalex:https://openalex.org/w4411378016,Can GPT tell us why these images are synthesized? Empowering Multimodal Large Language Models for Forensics,2025,Institute of Information Engineering,institution:9aae8d70d2d6eed8,automatic_fallback,39.907501220703125,116.39723205566406,True,conference,workshop,venue:ih-mmsec:main,Workshop · ACM Workshop on Information Hiding and Multimedia Security (IH&MMSec),valid baseline-only marker absent from current partial source snapshot
openalex-candidate-56d8b6d66e449045,openalex:https://openalex.org/w4413155783,Community Forensics: Using Thousands of Generators to Train Fake Image Detectors,2025,University of Michigan,institution:89b9b3962b3327c8,automatic_fallback,42.27756,-83.74088,True,conference,conference,venue:cvpr:main,Conference · IEEE/CVF Conference on Computer Vision and Pattern Recognition (CVPR),valid baseline-only marker absent from current partial source snapshot
openalex-candidate-2e8e2dd596764da4,openalex:https://openalex.org/w4409917780,Enhancing Synthetic Generated-Images Detection through Post-Hoc Calibration,2025,University of Siena,institution:65dbfd1e022f02e2,automatic_fallback,43.31821823120117,11.330639839172363,True,conference,conference,venue:ieee-cvf-winter-conference-on-applications-of-computer-vision:main,Conference · IEEE/CVF Winter Conference on Applications of Computer Vision (WACVW),valid baseline-only marker absent from current partial source snapshot
openalex-candidate-36c5c60d14ab8d83,openalex:https://openalex.org/w4410888267,Evolution of Detection Performance Throughout the Online Lifespan of Synthetic Images,2025,Centre for Research and Technology Hellas (CERTH),institution:f841aa8a7a0d29aa,automatic_fallback,40.64360809326172,22.93086051940918,True,book,book,venue:lncs:main,Book · Lecture Notes in Computer Science (LNCS),valid baseline-only marker absent from current partial source snapshot
openalex-candidate-8437dbea171cd8fe,openalex:https://openalex.org/w7137976262,SynerDetect: Hierarchical Synergistic Learning for Generalizable AI-Generated Image Detection,2026,Sun Yat-sen University,institution:5c85faa51cc57a24,automatic_fallback,23.11667,113.25,True,conference,conference,venue:aaai:main,Conference · AAAI Conference on Artificial Intelligence (AAAI),valid baseline-only marker absent from current partial source snapshot
openalex-candidate-359309458c5d064b,openalex:https://openalex.org/w7128818896,Penny-Wise and Pound-Foolish in AI-Generated Image Detection,2026,Harbin Institute of Technology,institution:fe438b1c7662476f,automatic_fallback,45.75,126.6500015258789,True,journal,journal,venue:ieee-transactions-on-pattern-analysis-and-machine-intelligence:main,Journal · IEEE Transactions on Pattern Analysis and Machine Intelligence,valid baseline-only marker absent from current partial source snapshot
openalex-candidate-3f0d23530876f4bc,openalex:https://openalex.org/w7125581744,DCNet: Learning Similarity and Spatial Complementary Features for Generalized AI-Generated Image Detection,2026,Fujian University of Technology,institution:c3227ed71ef6fcd8,automatic_fallback,26.061389923095703,119.30610656738281,True,journal,journal,venue:ieee-transactions-on-circuits-and-systems-for-video-technology:main,Journal · IEEE Transactions on Circuits and Systems for Video Technology,valid baseline-only marker absent from current partial source snapshot
openalex-candidate-d1f49c6a260404d3,openalex:https://openalex.org/w7131898118,Semantic Distribution and Authenticity Discrepancy Alignment for AI-Generated Image Detection,2026,Xi’an Jiaotong University,institution:afc29be68ac419be,automatic_fallback,34.25833,108.92861,True,journal,journal,venue:ieee-transactions-on-multimedia:main,Journal · IEEE Transactions on Multimedia,valid baseline-only marker absent from current partial source snapshot
openalex-candidate-bfc89b0b63bcdc26,openalex:https://openalex.org/w7125828141,Adversarial Diffusion Model: Generating High-Quality and Undetectable Images From Scratch,2026,Fudan University,institution:baa1df7c4adddbda,automatic_fallback,31.222219467163086,121.45806121826172,True,journal,journal,venue:ieee-transactions-on-information-forensics-and-security:main,Journal · IEEE Transactions on Information Forensics and Security,valid baseline-only marker absent from current partial source snapshot
openalex-candidate-19e6026830ef9ce2,openalex:https://openalex.org/w4417526972,Harnessing attention for cropping and fusion in CLIP-based AIGC detection,2025,China People's Public Security University,institution:b3e3a87d3fc950c5,automatic_fallback,39.907501220703125,116.39723205566406,True,journal,journal,venue:neurocomputing:main,Journal · Neurocomputing,valid baseline-only marker absent from current partial source snapshot
openalex-candidate-a84334d84ada41ec,openalex:https://openalex.org/w4417166521,E2GenF: Universal AIGC image detection based on edge enhanced generalizable features,2025,Shenzhen University,institution:ad9c8964d01f80d8,automatic_fallback,22.54553985595703,114.06829833984375,True,journal,journal,venue:pattern-recognition-letters:main,Journal · Pattern Recognition Letters,valid baseline-only marker absent from current partial source snapshot
openalex-candidate-840ec3364e991ddf,openalex:https://openalex.org/w7128586659,IoT-Oriented Security for Small Sensor Systems Using DnCNN Denoising and Multimodal Feature Fusion for Image Forgery Detection,2026,Government Sadiq College Women University,institution:823a09a4580fb39e,automatic_fallback,29.397859573364258,71.68363952636719,True,journal,journal,venue:sensors:main,Journal · Sensors,valid baseline-only marker absent from current partial source snapshot
openalex-candidate-ebe60fc6abbab654,openalex:https://openalex.org/w7164298589,Forensic Invariant Learning for Synthetic Image Detection: Bridging Benford's Law and Topological Analysis with Machine Learning Ensembles,2026,Comilla University,institution:7182b5831d4ba8a2,automatic_fallback,23.46186065673828,91.18502807617188,True,journal,journal,,,valid baseline-only marker absent from current partial source snapshot
openalex-candidate-aa0d52041ecd0c07,openalex:https://openalex.org/w4408356108,ReTD: Reconstruction-Based Traceability Detection for Generated Images,2025,"Institute of Information Engineering, Chinese Academy of Sciences",institution:cee70184073782c7,automatic_fallback,39.9075,116.39723,True,conference,conference,venue:ieee-international-conference-on-acoustics-speech-and-signal-processing:main,Conference · IEEE International Conference on Acoustics Speech and Signal Processing,valid baseline-only marker absent from current partial source snapshot
openalex-candidate-ad9158b1e1eef7b7,openalex:https://openalex.org/w4409367167,C2P-CLIP: Injecting Category Common Prompt in CLIP to Enhance Generalization in Deepfake Detection,2025,Beijing Jiaotong University,institution:bf6195b78f6dc951,automatic_fallback,39.907501220703125,116.39723205566406,True,conference,conference,venue:aaai:main,Conference · AAAI Conference on Artificial Intelligence (AAAI),valid baseline-only marker absent from current partial source snapshot
openalex-candidate-9fc14b2a0f7696ba,openalex:https://openalex.org/w4413145084,FIRE: Robust Detection of Diffusion-Generated Images via Frequency-Guided Reconstruction Error,2025,Beijing University of Posts and Telecommunications,institution:1502cb7c96ae3095,automatic_fallback,39.907501220703125,116.39723205566406,True,journal,journal,,,valid baseline-only marker absent from current partial source snapshot
openalex-candidate-20ef2bae71c5cf78,openalex:https://openalex.org/w4413145584,OpenSDI: Spotting Diffusion-Generated Images in the Open World,2025,Xi’an Jiaotong University,institution:afc29be68ac419be,automatic_fallback,34.25833,108.92861,True,journal,journal,,,valid baseline-only marker absent from current partial source snapshot
openalex-candidate-6162788b83db1bc7,openalex:https://openalex.org/w4413146372,Secret Lies in Color: Enhancing AI-Generated Images Detection with Color Distribution Analysis,2025,Tencent (China),institution:a992a0408381afc7,automatic_fallback,22.54554,114.0683,True,journal,journal,,,valid baseline-only marker absent from current partial source snapshot
openalex-candidate-000ae598a83c4cc6,openalex:https://openalex.org/w4413146055,CO-SPY: Combining Semantic and Pixel Features to Detect Synthetic Images by AI,2025,Purdue University West Lafayette,institution:312d37d9636306c2,automatic_fallback,40.42587,-86.90807,True,journal,journal,,,valid baseline-only marker absent from current partial source snapshot
openalex-candidate-3e36acb7cecb0f1d,openalex:https://openalex.org/w4413156425,Forensics-Bench: A Comprehensive Forgery Detection Benchmark Suite for Large Vision Language Models,2025,University of Hong Kong,institution:da2d97c082267c13,automatic_fallback,22.26861,114.12924,True,journal,journal,,,valid baseline-only marker absent from current partial source snapshot
openalex-candidate-10e227bebd064499,openalex:https://openalex.org/w4415343382,Aigi-Holmes: Towards Explainable and Generalizable AI-Generated Image Detection via Multimodal Large Language Models,2025,Xiamen University,institution:929ddef9540ec1e7,automatic_fallback,24.47978973388672,118.08187103271484,True,conference,conference,venue:iccv:main,Conference · IEEE/CVF International Conference on Computer Vision (ICCV),valid baseline-only marker absent from current partial source snapshot
openalex-candidate-f0876f99ba262471,openalex:https://openalex.org/w7160128830,Diffusion Epistemic Uncertainty with Asymmetric Learning for Diffusion-Generated Image Detection,2025,Tencent (China),institution:a992a0408381afc7,automatic_fallback,22.54554,114.0683,True,conference,conference,venue:iccv:main,Conference · IEEE/CVF International Conference on Computer Vision (ICCV),valid baseline-only marker absent from current partial source snapshot
openalex-candidate-90b5060d79313344,openalex:https://openalex.org/w4414903171,LEGION: Learning to Ground and Explain for Synthetic Image Detection,2025,Shanghai Jiao Tong University,institution:fccd5d0ac9cc52f9,automatic_fallback,31.222219467163086,121.45806121826172,True,preprint,preprint,,,valid baseline-only marker absent from current partial source snapshot
openalex-candidate-caad465d68fa7710,openalex:https://openalex.org/w4414487140,Semantic Discrepancy-Aware Detector for Image Forgery Identification,2025,Nanjing University of Science and Technology,institution:a239b6e2cb8473ef,automatic_fallback,32.061668395996094,118.77777862548828,True,journal,journal,,,valid baseline-only marker absent from current partial source snapshot
openalex-candidate-af86ed74fc84674b,openalex:https://openalex.org/w7160017581,ForgeLens: Data-Efficient Forgery Focus for Generalizable Forgery Image Detection,2025,Henan University of Engineering,institution:312f5a2a85c73aa0,automatic_fallback,34.623207092285156,113.69159698486328,True,journal,journal,,,valid baseline-only marker absent from current partial source snapshot
openalex-candidate-348a506b67288d74,openalex:https://openalex.org/w7131117798,CatAID: Category-Guided AI-Generated Image Detection via Vision-Language Model Adaptation,2025,University at Buffalo,institution:4f85329e76bc9454,automatic_fallback,42.88645,-78.87837,True,journal,journal,,,valid baseline-only marker absent from current partial source snapshot
openalex-candidate-569a3f42d9595894,openalex:https://openalex.org/w4411484192,SAGNet: Decoupling Semantic-Agnostic Artifacts From Limited Training Data for Robust Generalization in Deepfake Detection,2025,Beijing Jiaotong University,institution:bf6195b78f6dc951,automatic_fallback,39.907501220703125,116.39723205566406,True,journal,journal,venue:ieee-transactions-on-information-forensics-and-security:main,Journal · IEEE Transactions on Information Forensics and Security,valid baseline-only marker absent from current partial source snapshot
openalex-candidate-071adf2c66af598a,openalex:https://openalex.org/w4415538223,ExDA: Towards Universal Detection and Plug-and-Play Attribution of AI-Generated Ex-Regulatory Images,2025,Shanghai Jiao Tong University,institution:fccd5d0ac9cc52f9,automatic_fallback,31.222219467163086,121.45806121826172,True,journal,journal,,,valid baseline-only marker absent from current partial source snapshot
openalex-candidate-3a2726c50ff6a7d0,openalex:https://openalex.org/w4408355373,Spatial-Temporal Reconstruction Error for AIGC-based Forgery Image Detection,2025,Zhejiang University,institution:e433baf78e80004b,automatic_fallback,30.29365,120.16142,True,journal,journal,,,valid baseline-only marker absent from current partial source snapshot
openalex-candidate-ab2d4388df28f9ee,openalex:https://openalex.org/w4410487490,GCS-Net: A universal AI-generated visual content detection method based on CLIP,2025,Tianjin University of Technology,institution:3e0adb795a72cea8,automatic_fallback,39.14221954345703,117.17666625976562,True,journal,journal,venue:knowledge-based-systems:main,Journal · Knowledge-Based Systems,valid baseline-only marker absent from current partial source snapshot
openalex-candidate-2df36b8005f053b0,openalex:https://openalex.org/w4405895672,High-resolution network-based multi-feature fusion for generalized forgery detection,2024,Guizhou Normal University,institution:a1e1ec8b780e67c8,automatic_fallback,26.583330154418945,106.71666717529297,True,journal,journal,venue:multimedia-systems:main,Journal · Multimedia Systems,valid baseline-only marker absent from current partial source snapshot
openalex-candidate-58cf26d1f7ef3e1d,openalex:https://openalex.org/w4406657393,Optimized Frequency Collaborative Strategy Drives AI Image Detection,2025,Beijing Academy of Artificial Intelligence,institution:985443a2d7239406,automatic_fallback,39.99357223510742,116.3315200805664,True,journal,journal,venue:ieee-internet-of-things-journal:main,Journal · IEEE Internet of Things Journal,valid baseline-only marker absent from current partial source snapshot
openalex-candidate-2b3de8f25296a245,openalex:https://openalex.org/w4409917519,HFMF: Hierarchical Fusion Meets Multi-Stream Models for Deepfake Detection,2025,Texas A&M University,institution:4e140b5268efc364,automatic_fallback,30.62798,-96.33441,True,journal,journal,,,valid baseline-only marker absent from current partial source snapshot
openalex-candidate-6d6cebc338c382bb,openalex:https://openalex.org/w4409917584,TextureCrop: Enhancing Synthetic Image Detection Through Texture-Based Cropping,2025,Centre for Research and Technology Hellas (CERTH),institution:f841aa8a7a0d29aa,automatic_fallback,40.64360809326172,22.93086051940918,True,journal,journal,,,valid baseline-only marker absent from current partial source snapshot
openalex-candidate-642350cef5fc2cbd,openalex:https://openalex.org/w4415187215,HRR: Hierarchical retrospection refinement for generated image detection,2026,Jianghan University,institution:557b8ad811254ad6,automatic_fallback,30.583330154418945,114.26667022705078,True,journal,journal,venue:pattern-recognition-letters:main,Journal · Pattern Recognition Letters,valid baseline-only marker absent from current partial source snapshot
openalex-candidate-14d8de2dca116799,openalex:https://openalex.org/w4416260579,Robust AI-Synthesized Image Detection via Multi-feature Frequency-Aware Learning,2025,City University of Macau,institution:769b711ed2fee7c0,automatic_fallback,22.200559616088867,113.54611206054688,True,book,book,venue:lncs:main,Book · Lecture Notes in Computer Science (LNCS),valid baseline-only marker absent from current partial source snapshot
openalex-candidate-d451b0dc194a56c5,openalex:https://openalex.org/w4417052422,Composite Data Augmentations for Synthetic Image Detection Against Real-World Perturbations,2025,Aristotle University of Thessaloniki,institution:69d7dc38d11d5f80,automatic_fallback,40.64360809326172,22.93086051940918,True,journal,journal,,,valid baseline-only marker absent from current partial source snapshot
openalex-candidate-5e2bbf104c5cbbcd,openalex:https://openalex.org/w7138458380,Explainable Synthetic Image Detection Through Diffusion Timestep Ensembling,2026,Fudan University,institution:baa1df7c4adddbda,automatic_fallback,31.222219467163086,121.45806121826172,True,conference,conference,venue:aaai:main,Conference · AAAI Conference on Artificial Intelligence (AAAI),valid baseline-only marker absent from current partial source snapshot
openalex-candidate-0732653094055e02,openalex:https://openalex.org/w4400616829,Detecting Artificial Intelligence-Generated images via deep trace representations and interactive feature fusion,2024,Shanghai Jiao Tong University,institution:fccd5d0ac9cc52f9,automatic_fallback,31.222219467163086,121.45806121826172,True,journal,journal,venue:information-fusion:main,Journal · Information Fusion,valid baseline-only marker absent from current partial source snapshot
openalex-candidate-61bba714507e2aef,openalex:https://openalex.org/w7131430408,What is Real Anymore? A Solution to Detect Hyper Realistic AI-Generated Imagery,2026,East Tennessee State University,institution:3cef1f53ea25d8c9,automatic_fallback,36.31344,-82.35347,True,conference,conference,venue:ieee-16th-annual-computing-and-communication-workshop-and-conference:main,Conference · IEEE 16th Annual Computing and Communication Workshop and Conference (CCWC),valid baseline-only marker absent from current partial source snapshot
openalex-candidate-d7c069043e94318b,openalex:https://openalex.org/w4411979039,Art or Artifact? Segmenting AI-Generated Images for Deeper Detection,2025,Sungkyunkwan University,institution:e80b94c605da24ce,automatic_fallback,37.566,126.9784,True,conference,conference,venue:workshop-on-security-implications-of-deepfakes-and-cheapfakes:main,Conference · Workshop on Security Implications of Deepfakes and Cheapfakes,valid baseline-only marker absent from current partial source snapshot
openalex-candidate-ffc5d929530a3f5f,openalex:https://openalex.org/w7160998329,Light2Lie: Detecting Deepfake Images Using Physical Reflectance Laws,2026,Technische Universität Darmstadt,institution:f29a43c08a37e42f,automatic_fallback,49.87167,8.65027,True,journal,journal,,,valid baseline-only marker absent from current partial source snapshot
openalex-candidate-d2a030d99b35b5f8,openalex:https://openalex.org/w4416604008,"""That's another doom I haven't thought about"": A User Study on AI Labels as a Safeguard Against Image-Based Misinformation",2026,Leibniz University Hannover,institution:ac9dc63b4bd4669a,automatic_fallback,52.37052,9.73322,True,conference,conference,venue:chi:main,Conference · CHI Conference on Human Factors in Computing Systems (CHI),valid baseline-only marker absent from current partial source snapshot
openalex-candidate-54ed0ed2bf2c48e6,openalex:https://openalex.org/w7140634248,Toward Generalizable Forgery Detection and Reasoning,2026,Beijing University of Posts and Telecommunications,institution:1502cb7c96ae3095,automatic_fallback,39.907501220703125,116.39723205566406,True,journal,journal,venue:ieee-transactions-on-image-processing:main,Journal · IEEE Transactions on Image Processing,valid baseline-only marker absent from current partial source snapshot
openalex-candidate-04d03b396c4bb29f,openalex:https://openalex.org/w7128818896,Penny-Wise and Pound-Foolish in AI-Generated Image Detection,2026,University of Southampton,institution:a0c3927e4ddb3a39,automatic_fallback,50.90395,-1.40428,True,journal,journal,venue:ieee-transactions-on-pattern-analysis-and-machine-intelligence:main,Journal · IEEE Transactions on Pattern Analysis and Machine Intelligence,valid baseline-only marker absent from current partial source snapshot
openalex-candidate-c37d12b87daf2551,openalex:https://openalex.org/w7128818896,Penny-Wise and Pound-Foolish in AI-Generated Image Detection,2026,Xi’an Jiaotong University,institution:afc29be68ac419be,automatic_fallback,34.25833,108.92861,True,journal,journal,venue:ieee-transactions-on-pattern-analysis-and-machine-intelligence:main,Journal · IEEE Transactions on Pattern Analysis and Machine Intelligence,valid baseline-only marker absent from current partial source snapshot
openalex-candidate-99f3fd1d2669f905,openalex:https://openalex.org/w7125581744,DCNet: Learning Similarity and Spatial Complementary Features for Generalized AI-Generated Image Detection,2026,Beijing Institute of Graphic Communication,institution:9cd15ab643d7131f,automatic_fallback,39.907501220703125,116.39723205566406,True,journal,journal,venue:ieee-transactions-on-circuits-and-systems-for-video-technology:main,Journal · IEEE Transactions on Circuits and Systems for Video Technology,valid baseline-only marker absent from current partial source snapshot
openalex-candidate-9c67950484968b8b,openalex:https://openalex.org/w7125581744,DCNet: Learning Similarity and Spatial Complementary Features for Generalized AI-Generated Image Detection,2026,Beijing Jiaotong University,institution:bf6195b78f6dc951,automatic_fallback,39.907501220703125,116.39723205566406,True,journal,journal,venue:ieee-transactions-on-circuits-and-systems-for-video-technology:main,Journal · IEEE Transactions on Circuits and Systems for Video Technology,valid baseline-only marker absent from current partial source snapshot
openalex-candidate-919d3c2bcfbdb403,openalex:https://openalex.org/w7131898118,Semantic Distribution and Authenticity Discrepancy Alignment for AI-Generated Image Detection,2026,"Institute of Information Engineering, Chinese Academy of Sciences",institution:cee70184073782c7,automatic_fallback,39.9075,116.39723,True,journal,journal,venue:ieee-transactions-on-multimedia:main,Journal · IEEE Transactions on Multimedia,valid baseline-only marker absent from current partial source snapshot
openalex-candidate-6c5a75ed23ddbadc,openalex:https://openalex.org/w7131898118,Semantic Distribution and Authenticity Discrepancy Alignment for AI-Generated Image Detection,2026,"Institute of Computing Technology, Chinese Academy of Sciences",institution:e278f75918ccf8a7,automatic_fallback,39.907501220703125,116.39723205566406,True,journal,journal,venue:ieee-transactions-on-multimedia:main,Journal · IEEE Transactions on Multimedia,valid baseline-only marker absent from current partial source snapshot
openalex-candidate-5918fb9e10c6e4b8,openalex:https://openalex.org/w7131898118,Semantic Distribution and Authenticity Discrepancy Alignment for AI-Generated Image Detection,2026,Hangzhou Dianzi University,institution:07d62a903f84afcd,automatic_fallback,30.293649673461914,120.16142272949219,True,journal,journal,venue:ieee-transactions-on-multimedia:main,Journal · IEEE Transactions on Multimedia,valid baseline-only marker absent from current partial source snapshot
openalex-candidate-bc2429c5c07a5755,openalex:https://openalex.org/w4417166521,E2GenF: Universal AIGC image detection based on edge enhanced generalizable features,2025,Dongguan University of Technology,institution:f34946305c17c505,automatic_fallback,23.017969131469727,113.7486572265625,True,journal,journal,venue:pattern-recognition-letters:main,Journal · Pattern Recognition Letters,valid baseline-only marker absent from current partial source snapshot
openalex-candidate-d3328b56f74ed8cc,openalex:https://openalex.org/w7128586659,IoT-Oriented Security for Small Sensor Systems Using DnCNN Denoising and Multimodal Feature Fusion for Image Forgery Detection,2026,Nanfang Hospital,institution:b097d001d1031333,automatic_fallback,23.116670608520508,113.25,True,journal,journal,venue:sensors:main,Journal · Sensors,valid baseline-only marker absent from current partial source snapshot
openalex-candidate-e297a4042c91484d,openalex:https://openalex.org/w7128586659,IoT-Oriented Security for Small Sensor Systems Using DnCNN Denoising and Multimodal Feature Fusion for Image Forgery Detection,2026,Gachon University,institution:6beb2f6c52d3f30c,automatic_fallback,37.43861,127.13778,True,journal,journal,venue:sensors:main,Journal · Sensors,valid baseline-only marker absent from current partial source snapshot
openalex-candidate-b8c048d2bb06f247,openalex:https://openalex.org/w7164298589,Forensic Invariant Learning for Synthetic Image Detection: Bridging Benford's Law and Topological Analysis with Machine Learning Ensembles,2026,Jahangirnagar University,institution:b6af627e10ca7fed,automatic_fallback,23.710399627685547,90.40744018554688,True,journal,journal,,,valid baseline-only marker absent from current partial source snapshot
openalex-candidate-17d580ff48497e58,openalex:https://openalex.org/w4408356108,ReTD: Reconstruction-Based Traceability Detection for Generated Images,2025,Institute of Information Engineering,institution:9aae8d70d2d6eed8,automatic_fallback,39.907501220703125,116.39723205566406,True,conference,conference,venue:ieee-international-conference-on-acoustics-speech-and-signal-processing:main,Conference · IEEE International Conference on Acoustics Speech and Signal Processing,valid baseline-only marker absent from current partial source snapshot
openalex-candidate-a2ce78bcd5bb38d6,openalex:https://openalex.org/w4409367167,C2P-CLIP: Injecting Category Common Prompt in CLIP to Enhance Generalization in Deepfake Detection,2025,Yanshan University,institution:c5810afc25d178a5,automatic_fallback,39.9410400390625,119.58936309814453,True,conference,conference,venue:aaai:main,Conference · AAAI Conference on Artificial Intelligence (AAAI),valid baseline-only marker absent from current partial source snapshot
openalex-candidate-e7076d34d18cd4c5,openalex:https://openalex.org/w4409367167,C2P-CLIP: Injecting Category Common Prompt in CLIP to Enhance Generalization in Deepfake Detection,2025,"Chinese University of Hong Kong, Shenzhen",institution:d31a9474efa16c6c,automatic_fallback,22.68784523010254,114.20993041992188,True,conference,conference,venue:aaai:main,Conference · AAAI Conference on Artificial Intelligence (AAAI),valid baseline-only marker absent from current partial source snapshot
openalex-candidate-2e38546bdad915a5,openalex:https://openalex.org/w4413145584,OpenSDI: Spotting Diffusion-Generated Images in the Open World,2025,University of Southampton,institution:a0c3927e4ddb3a39,automatic_fallback,50.90395,-1.40428,True,journal,journal,,,valid baseline-only marker absent from current partial source snapshot
openalex-candidate-b09b2a90b0de5f28,openalex:https://openalex.org/w4413145584,OpenSDI: Spotting Diffusion-Generated Images in the Open World,2025,Harbin Institute of Technology,institution:fe438b1c7662476f,automatic_fallback,45.75,126.6500015258789,True,journal,journal,,,valid baseline-only marker absent from current partial source snapshot
openalex-candidate-c7a9ed2c288b1391,openalex:https://openalex.org/w4413146372,Secret Lies in Color: Enhancing AI-Generated Images Detection with Color Distribution Analysis,2025,Peking University,institution:46e4866d3b2954ab,automatic_fallback,39.9075,116.39723,True,journal,journal,,,valid baseline-only marker absent from current partial source snapshot
openalex-candidate-aa2022c6d0caa8a2,openalex:https://openalex.org/w4413146055,CO-SPY: Combining Semantic and Pixel Features to Detect Synthetic Images by AI,2025,Sony Corporation (United States),institution:711cae4423807c6b,automatic_fallback,40.717281341552734,-74.00550079345703,True,journal,journal,,,valid baseline-only marker absent from current partial source snapshot
openalex-candidate-6ba2d3f176bf7300,openalex:https://openalex.org/w4413146055,CO-SPY: Combining Semantic and Pixel Features to Detect Synthetic Images by AI,2025,Rutgers Sexual and Reproductive Health and Rights,institution:5f79f83ab8fc51d6,automatic_fallback,52.08233642578125,5.117863178253174,True,journal,journal,,,valid baseline-only marker absent from current partial source snapshot
openalex-candidate-67df04fbd008401e,openalex:https://openalex.org/w4413156425,Forensics-Bench: A Comprehensive Forgery Detection Benchmark Suite for Large Vision Language Models,2025,Institute for Advanced Study,institution:abb12d6634e39767,automatic_fallback,52.491519927978516,13.276505470275879,True,journal,journal,,,valid baseline-only marker absent from current partial source snapshot
openalex-candidate-787bf5e703e8baa7,openalex:https://openalex.org/w4413156425,Forensics-Bench: A Comprehensive Forgery Detection Benchmark Suite for Large Vision Language Models,2025,Zhejiang University,institution:e433baf78e80004b,automatic_fallback,30.29365,120.16142,True,journal,journal,,,valid baseline-only marker absent from current partial source snapshot
openalex-candidate-b869c4cbd105bd63,openalex:https://openalex.org/w4413156425,Forensics-Bench: A Comprehensive Forgery Detection Benchmark Suite for Large Vision Language Models,2025,Alibaba Group (China),institution:cc0b303e1e182195,automatic_fallback,30.29365,120.16142,True,journal,journal,,,valid baseline-only marker absent from current partial source snapshot
openalex-candidate-f3b81a41297debcc,openalex:https://openalex.org/w4413156425,Forensics-Bench: A Comprehensive Forgery Detection Benchmark Suite for Large Vision Language Models,2025,Vi Technology (United States),institution:14759ade48411164,automatic_fallback,32.95664596557617,-96.71497344970703,True,journal,journal,,,valid baseline-only marker absent from current partial source snapshot
openalex-candidate-25018a98e35b0b3b,openalex:https://openalex.org/w4413156425,Forensics-Bench: A Comprehensive Forgery Detection Benchmark Suite for Large Vision Language Models,2025,Megvii (China),institution:5e1b887e28ecec3a,automatic_fallback,39.907501220703125,116.39723205566406,True,journal,journal,,,valid baseline-only marker absent from current partial source snapshot
openalex-candidate-4cf5006b59bb9f1e,openalex:https://openalex.org/w4413156425,Forensics-Bench: A Comprehensive Forgery Detection Benchmark Suite for Large Vision Language Models,2025,Zhejiang Lab,institution:2f8c9f8f9209013d,automatic_fallback,30.271240234375,119.96514892578125,True,journal,journal,,,valid baseline-only marker absent from current partial source snapshot
openalex-candidate-a20705bf89a876c7,openalex:https://openalex.org/w4413156425,Forensics-Bench: A Comprehensive Forgery Detection Benchmark Suite for Large Vision Language Models,2025,ShangHai JiAi Genetics & IVF Institute,institution:04e9c5bce6738166,automatic_fallback,31.211912155151367,121.48272705078125,True,journal,journal,,,valid baseline-only marker absent from current partial source snapshot
openalex-candidate-adbae163f891d223,openalex:https://openalex.org/w4413156425,Forensics-Bench: A Comprehensive Forgery Detection Benchmark Suite for Large Vision Language Models,2025,Shanghai Artificial Intelligence Laboratory,institution:c107a95b6cb53ac5,automatic_fallback,31.222219467163086,121.45806121826172,True,journal,journal,,,valid baseline-only marker absent from current partial source snapshot
openalex-candidate-eeca6a851cd66fb5,openalex:https://openalex.org/w4415343382,Aigi-Holmes: Towards Explainable and Generalizable AI-Generated Image Detection via Multimodal Large Language Models,2025,Tencent (China),institution:a992a0408381afc7,automatic_fallback,22.54554,114.0683,True,conference,conference,venue:iccv:main,Conference · IEEE/CVF International Conference on Computer Vision (ICCV),valid baseline-only marker absent from current partial source snapshot
openalex-candidate-ac875fc3866340eb,openalex:https://openalex.org/w7160128830,Diffusion Epistemic Uncertainty with Asymmetric Learning for Diffusion-Generated Image Detection,2025,Microsoft (United States),institution:9e1ab9137907fdce,automatic_fallback,47.67399,-122.12151,True,conference,conference,venue:iccv:main,Conference · IEEE/CVF International Conference on Computer Vision (ICCV),valid baseline-only marker absent from current partial source snapshot
openalex-candidate-b592fe539708d9a4,openalex:https://openalex.org/w7160128830,Diffusion Epistemic Uncertainty with Asymmetric Learning for Diffusion-Generated Image Detection,2025,Microsoft Research (United Kingdom),institution:330ddee32a318616,automatic_fallback,52.19491958618164,0.13490499556064606,True,conference,conference,venue:iccv:main,Conference · IEEE/CVF International Conference on Computer Vision (ICCV),valid baseline-only marker absent from current partial source snapshot
openalex-candidate-14fd0a26117cf71b,openalex:https://openalex.org/w4414903171,LEGION: Learning to Ground and Explain for Synthetic Image Detection,2025,Beihang University,institution:f336b3005794930b,automatic_fallback,39.9075,116.39723,True,preprint,preprint,,,valid baseline-only marker absent from current partial source snapshot
openalex-candidate-bf82bd2badee947a,openalex:https://openalex.org/w4414903171,LEGION: Learning to Ground and Explain for Synthetic Image Detection,2025,Beijing Academy of Artificial Intelligence,institution:985443a2d7239406,automatic_fallback,39.99357223510742,116.3315200805664,True,preprint,preprint,,,valid baseline-only marker absent from current partial source snapshot
openalex-candidate-e0b769e76fa2e1a5,openalex:https://openalex.org/w4414903171,LEGION: Learning to Ground and Explain for Synthetic Image Detection,2025,Shanghai Artificial Intelligence Laboratory,institution:c107a95b6cb53ac5,automatic_fallback,31.222219467163086,121.45806121826172,True,preprint,preprint,,,valid baseline-only marker absent from current partial source snapshot
openalex-candidate-e0b2b9196a6705c5,openalex:https://openalex.org/w7131117798,CatAID: Category-Guided AI-Generated Image Detection via Vision-Language Model Adaptation,2025,"Institute of Information Engineering, Chinese Academy of Sciences",institution:cee70184073782c7,automatic_fallback,39.9075,116.39723,True,journal,journal,,,valid baseline-only marker absent from current partial source snapshot
openalex-candidate-452f2bb3c9879715,openalex:https://openalex.org/w7131117798,CatAID: Category-Guided AI-Generated Image Detection via Vision-Language Model Adaptation,2025,Institute of Information Engineering,institution:9aae8d70d2d6eed8,automatic_fallback,39.907501220703125,116.39723205566406,True,journal,journal,,,valid baseline-only marker absent from current partial source snapshot
openalex-candidate-35b487cf0a750d96,openalex:https://openalex.org/w4408355373,Spatial-Temporal Reconstruction Error for AIGC-based Forgery Image Detection,2025,Alibaba Group (United States),institution:cf0b2fc7cd1b6b67,automatic_fallback,37.55870819091797,-122.3250732421875,True,journal,journal,,,valid baseline-only marker absent from current partial source snapshot
openalex-candidate-eced2038e5ce940f,openalex:https://openalex.org/w4408355373,Spatial-Temporal Reconstruction Error for AIGC-based Forgery Image Detection,2025,Zhejiang University of Technology,institution:9b91aedca1273b56,automatic_fallback,30.293649673461914,120.16142272949219,True,journal,journal,,,valid baseline-only marker absent from current partial source snapshot
openalex-candidate-b991d5dd58baf382,openalex:https://openalex.org/w4406657393,Optimized Frequency Collaborative Strategy Drives AI Image Detection,2025,Innovation Team (China),institution:b8150f32ccd21738,automatic_fallback,22.363998413085938,114.1185302734375,True,journal,journal,venue:ieee-internet-of-things-journal:main,Journal · IEEE Internet of Things Journal,valid baseline-only marker absent from current partial source snapshot
openalex-candidate-98ffdb4796e3ac34,openalex:https://openalex.org/w4406657393,Optimized Frequency Collaborative Strategy Drives AI Image Detection,2025,Beijing Information Science & Technology University,institution:ea6661ca99f0c1aa,automatic_fallback,39.907501220703125,116.39723205566406,True,journal,journal,venue:ieee-internet-of-things-journal:main,Journal · IEEE Internet of Things Journal,valid baseline-only marker absent from current partial source snapshot
openalex-candidate-ad4931172a3a8b10,openalex:https://openalex.org/w4415187215,HRR: Hierarchical retrospection refinement for generated image detection,2026,Huazhong University of Science and Technology,institution:e540a2485c3e954f,automatic_fallback,30.58333,114.26667,True,journal,journal,venue:pattern-recognition-letters:main,Journal · Pattern Recognition Letters,valid baseline-only marker absent from current partial source snapshot
openalex-candidate-39b4e03faec6a6f1,openalex:https://openalex.org/w4415187215,HRR: Hierarchical retrospection refinement for generated image detection,2026,Tsinghua University,institution:4ae45b121fe12e9c,automatic_fallback,39.9075,116.39723,True,journal,journal,venue:pattern-recognition-letters:main,Journal · Pattern Recognition Letters,valid baseline-only marker absent from current partial source snapshot
openalex-candidate-7d20ed781c0382f5,openalex:https://openalex.org/w4415187215,HRR: Hierarchical retrospection refinement for generated image detection,2026,Wuhan Business University,institution:69152a620553f03a,automatic_fallback,30.583330154418945,114.26667022705078,True,journal,journal,venue:pattern-recognition-letters:main,Journal · Pattern Recognition Letters,valid baseline-only marker absent from current partial source snapshot
openalex-candidate-334212e8d15b7352,openalex:https://openalex.org/w4415187215,HRR: Hierarchical retrospection refinement for generated image detection,2026,Huazhong Agricultural University,institution:ed58576681c8c7e7,automatic_fallback,30.583330154418945,114.26667022705078,True,journal,journal,venue:pattern-recognition-letters:main,Journal · Pattern Recognition Letters,valid baseline-only marker absent from current partial source snapshot
openalex-candidate-69b6cc25d8a5670e,openalex:https://openalex.org/w4416260579,Robust AI-Synthesized Image Detection via Multi-feature Frequency-Aware Learning,2025,Torrens University Australia,institution:e58a37a2924e1779,automatic_fallback,-34.927703857421875,138.60400390625,True,book,book,venue:lncs:main,Book · Lecture Notes in Computer Science (LNCS),valid baseline-only marker absent from current partial source snapshot
openalex-candidate-4509b84439624582,openalex:https://openalex.org/w4416260579,Robust AI-Synthesized Image Detection via Multi-feature Frequency-Aware Learning,2025,Qilu University of Technology,institution:77fb2ba62b721cd6,automatic_fallback,36.668331146240234,116.99722290039062,True,book,book,venue:lncs:main,Book · Lecture Notes in Computer Science (LNCS),valid baseline-only marker absent from current partial source snapshot
openalex-candidate-c6b33fd930b71a45,openalex:https://openalex.org/w4416260579,Robust AI-Synthesized Image Detection via Multi-feature Frequency-Aware Learning,2025,Shandong Academy of Sciences,institution:932fb42ad74deeea,automatic_fallback,36.668331146240234,116.99722290039062,True,book,book,venue:lncs:main,Book · Lecture Notes in Computer Science (LNCS),valid baseline-only marker absent from current partial source snapshot
openalex-candidate-d58759107c8e4179,openalex:https://openalex.org/w4416260579,Robust AI-Synthesized Image Detection via Multi-feature Frequency-Aware Learning,2025,Wuhan Institute of Technology,institution:cdde929ea128594e,automatic_fallback,30.583330154418945,114.26667022705078,True,book,book,venue:lncs:main,Book · Lecture Notes in Computer Science (LNCS),valid baseline-only marker absent from current partial source snapshot
openalex-candidate-4a516cc1ca95d8a3,openalex:https://openalex.org/w4417052422,Composite Data Augmentations for Synthetic Image Detection Against Real-World Perturbations,2025,Centre for Research and Technology Hellas (CERTH),institution:f841aa8a7a0d29aa,automatic_fallback,40.64360809326172,22.93086051940918,True,journal,journal,,,valid baseline-only marker absent from current partial source snapshot
openalex-candidate-a476e2ac4895a63d,openalex:https://openalex.org/w7138458380,Explainable Synthetic Image Detection Through Diffusion Timestep Ensembling,2026,Ministry of Education,institution:8b4ead1dd8198300,automatic_fallback,42.446346282958984,19.263551712036133,True,conference,conference,venue:aaai:main,Conference · AAAI Conference on Artificial Intelligence (AAAI),valid baseline-only marker absent from current partial source snapshot
openalex-candidate-5c162b028d7360e0,openalex:https://openalex.org/w3034577585,CNN-Generated Images Are Surprisingly Easy to Spot… for Now,2020,"University of California, Berkeley",institution:be74dcf5d0cb77ea,automatic_fallback,37.87159,-122.27275,True,conference,conference,venue:cvpr:main,Conference · IEEE/CVF Conference on Computer Vision and Pattern Recognition (CVPR),valid baseline-only marker absent from current partial source snapshot
openalex-candidate-5fda634ec5bf4313,openalex:https://openalex.org/w3034577585,CNN-Generated Images Are Surprisingly Easy to Spot… for Now,2020,Adobe Systems (United States),institution:a3c0c022b00a11a5,automatic_fallback,37.330989837646484,-121.89387512207031,True,conference,conference,venue:cvpr:main,Conference · IEEE/CVF Conference on Computer Vision and Pattern Recognition (CVPR),valid baseline-only marker absent from current partial source snapshot
openalex-candidate-47fe7ee951179c82,openalex:https://openalex.org/w3034577585,CNN-Generated Images Are Surprisingly Easy to Spot… for Now,2020,University of Michigan,institution:89b9b3962b3327c8,automatic_fallback,42.27756,-83.74088,True,conference,conference,venue:cvpr:main,Conference · IEEE/CVF Conference on Computer Vision and Pattern Recognition (CVPR),valid baseline-only marker absent from current partial source snapshot
openalex-candidate-d5b1b2876e40ea95,openalex:https://openalex.org/w3034864980,Watch your Up-Convolution: CNN Based Generative Deep Neural Networks are Failing to Reproduce Spectral Distributions,2020,Fraunhofer Institute for Industrial Mathematics,institution:42c60ebb24e9f839,automatic_fallback,49.443,7.77161,True,journal,journal,venue:opus-hso-offenburg-university-of-applied-sciences:main,Journal · Opus-HSO (Offenburg University of Applied Sciences),valid baseline-only marker absent from current partial source snapshot
openalex-candidate-86a1fb2c93aaf3d2,openalex:https://openalex.org/w3034864980,Watch your Up-Convolution: CNN Based Generative Deep Neural Networks are Failing to Reproduce Spectral Distributions,2020,University of Mannheim,institution:957fef132942e033,automatic_fallback,49.483924865722656,8.462201118469238,True,journal,journal,venue:opus-hso-offenburg-university-of-applied-sciences:main,Journal · Opus-HSO (Offenburg University of Applied Sciences),valid baseline-only marker absent from current partial source snapshot
openalex-candidate-26212c5f9ae7c528,openalex:https://openalex.org/w3034864980,Watch your Up-Convolution: CNN Based Generative Deep Neural Networks are Failing to Reproduce Spectral Distributions,2020,Offenburg University of Applied Sciences,institution:59fe0b363dfeb8f5,automatic_fallback,48.47377014160156,7.944950103759766,True,journal,journal,venue:opus-hso-offenburg-university-of-applied-sciences:main,Journal · Opus-HSO (Offenburg University of Applied Sciences),valid baseline-only marker absent from current partial source snapshot
openalex-candidate-e2c5539234db7f18,openalex:https://openalex.org/w2985484909,Fourier Spectrum Discrepancies in Deep Network Generated Images,2019,Georgia Institute of Technology,institution:c2dab080fa856716,automatic_fallback,33.749,-84.38798,True,preprint,preprint,venue:arxiv:main,Preprint · arXiv,valid baseline-only marker absent from current partial source snapshot
openalex-candidate-bbd1468e148a21a0,openalex:https://openalex.org/w3187526215,Beyond the Spectrum: Detecting Deepfakes via Re-Synthesis,2021,University of Mannheim,institution:957fef132942e033,automatic_fallback,49.483924865722656,8.462201118469238,True,conference,conference,venue:thirtieth-international-joint-conference-on-artificial-intelligence:main,Conference · Thirtieth International Joint Conference on Artificial Intelligence,valid baseline-only marker absent from current partial source snapshot
openalex-candidate-997b7cada0cd13b8,openalex:https://openalex.org/w3196551054,BiHPF: Bilateral High-Pass Filters for Robust Deepfake Detection,2022,Samsung SDS (South Korea),institution:49700da520d8842b,automatic_fallback,37.566001892089844,126.97840118408203,True,conference,conference,venue:wacv:main,Conference · IEEE/CVF Winter Conference on Applications of Computer Vision (WACV),valid baseline-only marker absent from current partial source snapshot
openalex-candidate-d4d6a97b6ac2d044,openalex:https://openalex.org/w3196551054,BiHPF: Bilateral High-Pass Filters for Robust Deepfake Detection,2022,Chung-Ang University,institution:8ee530c781dde9f8,automatic_fallback,37.566,126.9784,True,conference,conference,venue:wacv:main,Conference · IEEE/CVF Winter Conference on Applications of Computer Vision (WACV),valid baseline-only marker absent from current partial source snapshot
openalex-candidate-861d4997903e301b,openalex:https://openalex.org/w4390191016,Detecting Images Generated by Deep Diffusion Models using their Local Intrinsic Dimensionality,2023,Offenburg University of Applied Sciences,institution:59fe0b363dfeb8f5,automatic_fallback,48.47377014160156,7.944950103759766,True,conference,conference,venue:ieee-cvf-international-conference-on-computer-vision:main,Conference · IEEE/CVF International Conference on Computer Vision (ICCVW),valid baseline-only marker absent from current partial source snapshot
openalex-candidate-2b7ef5cab0f79dbf,openalex:https://openalex.org/w4388002730,Exposing fake images generated by text-to-image diffusion models,2023,Chongqing University of Posts and Telecommunications,institution:7e10613327a4e264,automatic_fallback,29.560260772705078,106.55770874023438,True,journal,journal,venue:pattern-recognition-letters:main,Journal · Pattern Recognition Letters,valid baseline-only marker absent from current partial source snapshot
openalex-candidate-f4461dd110d286dd,openalex:https://openalex.org/w4388002730,Exposing fake images generated by text-to-image diffusion models,2023,Shanghai Jiao Tong University,institution:fccd5d0ac9cc52f9,automatic_fallback,31.222219467163086,121.45806121826172,True,journal,journal,venue:pattern-recognition-letters:main,Journal · Pattern Recognition Letters,valid baseline-only marker absent from current partial source snapshot
openalex-candidate-ae35df129a4a0210,openalex:https://openalex.org/w4388002730,Exposing fake images generated by text-to-image diffusion models,2023,Wuhan University,institution:f23b95ce92de4591,automatic_fallback,30.583330154418945,114.26667022705078,True,journal,journal,venue:pattern-recognition-letters:main,Journal · Pattern Recognition Letters,valid baseline-only marker absent from current partial source snapshot
openalex-candidate-d93540d41f9dfe0f,openalex:https://openalex.org/w4398184526,Parents and Children: Distinguishing Multimodal Deepfakes from Natural Images,2024,University of Pisa,institution:3ec8d9fa829f5777,automatic_fallback,43.70853,10.4036,True,journal,journal,venue:acm-transactions-on-multimedia-computing-communications-and-applications:main,Journal · ACM Transactions on Multimedia Computing Communications and Applications,valid baseline-only marker absent from current partial source snapshot
openalex-candidate-fbd1b4e712a1770e,openalex:https://openalex.org/w4398184526,Parents and Children: Distinguishing Multimodal Deepfakes from Natural Images,2024,University of Florence,institution:42fcf4ae44e1a706,automatic_fallback,43.77925,11.24626,True,journal,journal,venue:acm-transactions-on-multimedia-computing-communications-and-applications:main,Journal · ACM Transactions on Multimedia Computing Communications and Applications,valid baseline-only marker absent from current partial source snapshot
openalex-candidate-6ce9f14d551acdd7,openalex:https://openalex.org/w4398184526,Parents and Children: Distinguishing Multimodal Deepfakes from Natural Images,2024,Institute of Informatics and Telematics,institution:4275f5190441c4cc,automatic_fallback,43.718841552734375,10.425210952758789,True,journal,journal,venue:acm-transactions-on-multimedia-computing-communications-and-applications:main,Journal · ACM Transactions on Multimedia Computing Communications and Applications,valid baseline-only marker absent from current partial source snapshot
openalex-candidate-f8db40a7c441cf96,openalex:https://openalex.org/w4393379633,Unsupervised Generative Fake Image Detector,2024,Nanjing University of Science and Technology,institution:a239b6e2cb8473ef,automatic_fallback,32.061668395996094,118.77777862548828,True,journal,journal,venue:ieee-transactions-on-circuits-and-systems-for-video-technology:main,Journal · IEEE Transactions on Circuits and Systems for Video Technology,valid baseline-only marker absent from current partial source snapshot
openalex-candidate-6fc370d5df6774bc,openalex:https://openalex.org/w4376461282,CSC-Net: Cross-Color Spatial Co-Occurrence Matrix Network for Detecting Synthesized Fake Images,2023,Zhengzhou University of Science and Technology,institution:5d8853c0a593d41c,automatic_fallback,34.75777816772461,113.64861297607422,True,journal,journal,venue:ieee-transactions-on-cognitive-and-developmental-systems:main,Journal · IEEE Transactions on Cognitive and Developmental Systems,valid baseline-only marker absent from current partial source snapshot
openalex-candidate-fd1ee43f4c5a3cbc,openalex:https://openalex.org/w4376461282,CSC-Net: Cross-Color Spatial Co-Occurrence Matrix Network for Detecting Synthesized Fake Images,2023,Institute of Information Engineering,institution:9aae8d70d2d6eed8,automatic_fallback,39.907501220703125,116.39723205566406,True,journal,journal,venue:ieee-transactions-on-cognitive-and-developmental-systems:main,Journal · IEEE Transactions on Cognitive and Developmental Systems,valid baseline-only marker absent from current partial source snapshot
openalex-candidate-2d981a019350f6f7,openalex:https://openalex.org/w4376461282,CSC-Net: Cross-Color Spatial Co-Occurrence Matrix Network for Detecting Synthesized Fake Images,2023,State Key Laboratory of Information Security,institution:8ac3b059e7b70054,automatic_fallback,39.907501220703125,116.39723205566406,True,journal,journal,venue:ieee-transactions-on-cognitive-and-developmental-systems:main,Journal · IEEE Transactions on Cognitive and Developmental Systems,valid baseline-only marker absent from current partial source snapshot
openalex-candidate-d08a59071a5ce658,openalex:https://openalex.org/w4376461282,CSC-Net: Cross-Color Spatial Co-Occurrence Matrix Network for Detecting Synthesized Fake Images,2023,Hangzhou Dianzi University,institution:07d62a903f84afcd,automatic_fallback,30.293649673461914,120.16142272949219,True,journal,journal,venue:ieee-transactions-on-cognitive-and-developmental-systems:main,Journal · IEEE Transactions on Cognitive and Developmental Systems,valid baseline-only marker absent from current partial source snapshot
openalex-candidate-f14a062d1d09f540,openalex:https://openalex.org/w4376461282,CSC-Net: Cross-Color Spatial Co-Occurrence Matrix Network for Detecting Synthesized Fake Images,2023,Nanjing University of Science and Technology,institution:a239b6e2cb8473ef,automatic_fallback,32.061668395996094,118.77777862548828,True,journal,journal,venue:ieee-transactions-on-cognitive-and-developmental-systems:main,Journal · IEEE Transactions on Cognitive and Developmental Systems,valid baseline-only marker absent from current partial source snapshot
openalex-candidate-f7c71d6638e67c20,openalex:https://openalex.org/w4395447483,MMGANGuard: A Robust Approach for Detecting Fake Images Generated by GANs Using Multi-Model Techniques,2024,University of South Wales,institution:8051e5f39b55dde4,automatic_fallback,51.6021,-3.34211,True,journal,journal,venue:ieee-access:main,Journal · IEEE Access,valid baseline-only marker absent from current partial source snapshot
openalex-candidate-d57eaa91b9cb67b6,openalex:https://openalex.org/w4391433395,MDTL-NET: Computer-generated image detection based on multi-scale deep texture learning,2024,Shanghai Jiao Tong University,institution:fccd5d0ac9cc52f9,automatic_fallback,31.222219467163086,121.45806121826172,True,journal,journal,venue:expert-systems-with-applications:main,Journal · Expert Systems with Applications,valid baseline-only marker absent from current partial source snapshot
openalex-candidate-a661437e33b89fb1,openalex:https://openalex.org/w4391433395,MDTL-NET: Computer-generated image detection based on multi-scale deep texture learning,2024,University at Buffalo,institution:4f85329e76bc9454,automatic_fallback,42.88645,-78.87837,True,journal,journal,venue:expert-systems-with-applications:main,Journal · Expert Systems with Applications,valid baseline-only marker absent from current partial source snapshot
openalex-candidate-5728035d66086141,openalex:https://openalex.org/w4394624427,Enhancing the Generalization of Synthetic Image Detection Models through the Exploration of Features in Deep Detection Models,2024,Institute for Research in Fundamental Sciences,institution:23824a2aff1dfd72,automatic_fallback,35.810001373291016,51.470001220703125,True,conference,conference,venue:iranian-3rd-international-machine-vision-and-image-processing-conference:main,Conference · Iranian/3rd International Machine Vision and Image Processing Conference (MVIP),valid baseline-only marker absent from current partial source snapshot
openalex-candidate-666900f99f017750,openalex:https://openalex.org/w4405945632,Addressing Diffusion Model Based Counter-Forensic Image Manipulation for Synthetic Image Detection,2024,Indian Institute of Science Bangalore,institution:44f01b033a0b3ac2,automatic_fallback,13.02127456665039,77.56576538085938,True,conference,conference,venue:indian-conference-on-computer-vision-graphics-and-image-processing:main,Conference · Indian Conference on Computer Vision Graphics and Image Processing,valid baseline-only marker absent from current partial source snapshot
openalex-candidate-3990eb28063ab061,openalex:https://openalex.org/w4402594796,Robust CLIP-Based Detector for Exposing Diffusion Model-Generated Images,2024,Sapienza University of Rome,institution:977430a4473aa4b0,automatic_fallback,41.89193,12.51133,True,conference,conference,venue:ieee-international-conference-on-advanced-video-and-signal-based-surveillance:main,Conference · IEEE International Conference on Advanced Video and Signal Based Surveillance (AVSS),valid baseline-only marker absent from current partial source snapshot
openalex-candidate-33bb474f87de8a22,openalex:https://openalex.org/w4402594796,Robust CLIP-Based Detector for Exposing Diffusion Model-Generated Images,2024,Albany State University,institution:ed46151823d63d21,automatic_fallback,31.578510284423828,-84.1557388305664,True,conference,conference,venue:ieee-international-conference-on-advanced-video-and-signal-based-surveillance:main,Conference · IEEE International Conference on Advanced Video and Signal Based Surveillance (AVSS),valid baseline-only marker absent from current partial source snapshot
openalex-candidate-b4304b45ac765fdf,openalex:https://openalex.org/w4402594796,Robust CLIP-Based Detector for Exposing Diffusion Model-Generated Images,2024,"University at Albany, State University of New York",institution:c121cd267550901f,automatic_fallback,42.65258026123047,-73.75623321533203,True,conference,conference,venue:ieee-international-conference-on-advanced-video-and-signal-based-surveillance:main,Conference · IEEE International Conference on Advanced Video and Signal Based Surveillance (AVSS),valid baseline-only marker absent from current partial source snapshot
openalex-candidate-298eb945a853dac9,openalex:https://openalex.org/w4409262697,Detecting Origin Attribution for Text-to-Image Diffusion Models,2025,Adobe Systems (United States),institution:a3c0c022b00a11a5,automatic_fallback,37.330989837646484,-121.89387512207031,True,conference,conference,venue:wacv:main,Conference · IEEE/CVF Winter Conference on Applications of Computer Vision (WACV),valid baseline-only marker absent from current partial source snapshot
openalex-candidate-a20cac84f264662f,openalex:https://openalex.org/w7125951995,Transferable Dual-Domain Feature Importance Attack Against AI-Generated Image Detector,2026,Hunan University,institution:be8fe6da68f67876,automatic_fallback,28.19874,112.97087,True,journal,journal,venue:ieee-signal-processing-letters:main,Journal · IEEE Signal Processing Letters,valid baseline-only marker absent from current partial source snapshot
openalex-candidate-cf5bd2ffade56baa,openalex:https://openalex.org/w7125951995,Transferable Dual-Domain Feature Importance Attack Against AI-Generated Image Detector,2026,Beijing Institute of Graphic Communication,institution:9cd15ab643d7131f,automatic_fallback,39.907501220703125,116.39723205566406,True,journal,journal,venue:ieee-signal-processing-letters:main,Journal · IEEE Signal Processing Letters,valid baseline-only marker absent from current partial source snapshot
openalex-candidate-1a6f30e7dd9ff362,openalex:https://openalex.org/w7125951995,Transferable Dual-Domain Feature Importance Attack Against AI-Generated Image Detector,2026,Fujian University of Technology,institution:c3227ed71ef6fcd8,automatic_fallback,26.061389923095703,119.30610656738281,True,journal,journal,venue:ieee-signal-processing-letters:main,Journal · IEEE Signal Processing Letters,valid baseline-only marker absent from current partial source snapshot
openalex-candidate-d3c0cf398940df01,openalex:https://openalex.org/w7164742316,"Interpol review of detection of AI-generated image and video deepfakes, 2022-2025",2026,University of Amsterdam,institution:4a9a14dbf4357b38,automatic_fallback,52.37403,4.88969,True,journal,journal,venue:forensic-science-international-synergy:main,Journal · Forensic Science International Synergy,valid baseline-only marker absent from current partial source snapshot
openalex-candidate-f57f044665c3dfed,openalex:https://openalex.org/w4411378016,Can GPT tell us why these images are synthesized? Empowering Multimodal Large Language Models for Forensics,2025,University of Chinese Academy of Sciences,institution:69309405e04976ec,automatic_fallback,39.9075,116.39723,True,conference,workshop,venue:ih-mmsec:main,Workshop · ACM Workshop on Information Hiding and Multimedia Security (IH&MMSec),valid baseline-only marker absent from current partial source snapshot
openalex-candidate-946b2b9eadfa8d46,openalex:https://openalex.org/w4410888267,Evolution of Detection Performance Throughout the Online Lifespan of Synthetic Images,2025,Centre National de la Recherche Scientifique,institution:29645bb566fcd576,automatic_fallback,48.85341,2.3488,True,book,book,venue:lncs:main,Book · Lecture Notes in Computer Science (LNCS),valid baseline-only marker absent from current partial source snapshot
openalex-candidate-f130bd2750a3091a,openalex:https://openalex.org/w4410888267,Evolution of Detection Performance Throughout the Online Lifespan of Synthetic Images,2025,Université Paris-Saclay,institution:0c5e25ec47ce33fe,automatic_fallback,48.68333,2.13333,True,book,book,venue:lncs:main,Book · Lecture Notes in Computer Science (LNCS),valid baseline-only marker absent from current partial source snapshot
openalex-candidate-ab5caf38c08b1f42,openalex:https://openalex.org/w4410888267,Evolution of Detection Performance Throughout the Online Lifespan of Synthetic Images,2025,Centre Borelli,institution:995961c53e221f07,automatic_fallback,48.85341,2.3488,True,book,book,venue:lncs:main,Book · Lecture Notes in Computer Science (LNCS),valid baseline-only marker absent from current partial source snapshot
openalex-candidate-ec4a1e74d34806d1,openalex:https://openalex.org/w4410888267,Evolution of Detection Performance Throughout the Online Lifespan of Synthetic Images,2025,Agence France-Presse,institution:e24529de73ecaa2c,automatic_fallback,48.86875534057617,2.3405470848083496,True,book,book,venue:lncs:main,Book · Lecture Notes in Computer Science (LNCS),valid baseline-only marker absent from current partial source snapshot
openalex-candidate-ff2c575fbe73b2dd,openalex:https://openalex.org/w4416604008,"""That's another doom I haven't thought about"": A User Study on AI Labels as a Safeguard Against Image-Based Misinformation",2026,Helmholtz Center for Information Security,institution:6f14a665aa77ba34,automatic_fallback,49.23262023925781,7.009819984436035,True,conference,conference,venue:chi:main,Conference · CHI Conference on Human Factors in Computing Systems (CHI),valid baseline-only marker absent from current partial source snapshot
openalex-candidate-2d8466e77a874e50,openalex:https://openalex.org/w4416604008,"""That's another doom I haven't thought about"": A User Study on AI Labels as a Safeguard Against Image-Based Misinformation",2026,Hannover Re (Germany),institution:aeb3cd858bb22d74,automatic_fallback,52.39210891723633,9.803854942321777,True,conference,conference,venue:chi:main,Conference · CHI Conference on Human Factors in Computing Systems (CHI),valid baseline-only marker absent from current partial source snapshot
openalex-candidate-ee0060dfde947124,openalex:https://openalex.org/w4416604008,"""That's another doom I haven't thought about"": A User Study on AI Labels as a Safeguard Against Image-Based Misinformation",2026,Ruhr University Bochum,institution:8f8dd64c6339c8ff,automatic_fallback,51.48165,7.21648,True,conference,conference,venue:chi:main,Conference · CHI Conference on Human Factors in Computing Systems (CHI),valid baseline-only marker absent from current partial source snapshot
openalex-candidate-01f34db1cddbd93f,openalex:https://openalex.org/w4416604008,"""That's another doom I haven't thought about"": A User Study on AI Labels as a Safeguard Against Image-Based Misinformation",2026,Max Planck Institute for Security and Privacy,institution:068512c1b695fe0b,automatic_fallback,51.481651306152344,7.216479778289795,True,conference,conference,venue:chi:main,Conference · CHI Conference on Human Factors in Computing Systems (CHI),valid baseline-only marker absent from current partial source snapshot
openalex-candidate-6dc2b82fbc957b1e,openalex:https://openalex.org/w7140634248,Toward Generalizable Forgery Detection and Reasoning,2026,Tsinghua University,institution:4ae45b121fe12e9c,automatic_fallback,39.9075,116.39723,True,journal,journal,venue:ieee-transactions-on-image-processing:main,Journal · IEEE Transactions on Image Processing,valid baseline-only marker absent from current partial source snapshot
openalex-candidate-2b475dc8c8dde0d4,openalex:https://openalex.org/w4400616829,Detecting Artificial Intelligence-Generated images via deep trace representations and interactive feature fusion,2024,Chongqing University of Posts and Telecommunications,institution:7e10613327a4e264,automatic_fallback,29.560260772705078,106.55770874023438,True,journal,journal,venue:information-fusion:main,Journal · Information Fusion,valid baseline-only marker absent from current partial source snapshot
openalex-candidate-66be57c590f92be1,openalex:https://openalex.org/w4400616829,Detecting Artificial Intelligence-Generated images via deep trace representations and interactive feature fusion,2024,City University of Hong Kong,institution:ec71dc4340659fd9,automatic_fallback,22.2783203125,114.17469024658203,True,journal,journal,venue:information-fusion:main,Journal · Information Fusion,valid baseline-only marker absent from current partial source snapshot
curated-map:9dfe91eed53137a6c093,openalex:https://openalex.org/w4400716502,"A Survey of Defenses Against AI-Generated Visual Media: Detection,Disruption, and Authentication",2024,Xi’an Jiaotong University,institution:afc29be68ac419be,curated,34.2467,108.9839,True,preprint,preprint,venue:arxiv:main,Preprint · arXiv,valid baseline-only marker absent from current partial source snapshot
curated-map:81103833566d51c52b15,openalex:https://openalex.org/w4400716502,"A Survey of Defenses Against AI-Generated Visual Media: Detection,Disruption, and Authentication",2024,The Hong Kong Polytechnic University,institution:31f980eaa403801a,curated,22.3046,114.1796,True,preprint,preprint,venue:arxiv:main,Preprint · arXiv,valid baseline-only marker absent from current partial source snapshot
curated-map:e07a8799bf8c1f22b73c,openalex:https://openalex.org/w4400716502,"A Survey of Defenses Against AI-Generated Visual Media: Detection,Disruption, and Authentication",2024,Wuhan University,institution:f23b95ce92de4591,curated,30.5407,114.3603,True,preprint,preprint,venue:arxiv:main,Preprint · arXiv,valid baseline-only marker absent from current partial source snapshot
curated-map:af32adbe2f150b914795,openalex:https://openalex.org/w7155245437,Adaptive Forensic Feature Refinement via Intrinsic Importance Perception,2026,Zhejiang University,institution:e433baf78e80004b,curated,30.3083,120.0867,True,preprint,preprint,venue:arxiv:main,Preprint · arXiv,valid baseline-only marker absent from current partial source snapshot
curated-map:fa2c26b9fb70d11a094e,openalex:https://openalex.org/w7155245437,Adaptive Forensic Feature Refinement via Intrinsic Importance Perception,2026,Alibaba Inc,institution:6faf58b52bec4e39,curated,30.1919,120.1858,True,preprint,preprint,venue:arxiv:main,Preprint · arXiv,valid baseline-only marker absent from current partial source snapshot
curated-map:5d7f1c30c7ba7cfe9b50,openalex:https://openalex.org/w7155245437,Adaptive Forensic Feature Refinement via Intrinsic Importance Perception,2026,Zhejiang University of Technology,institution:9b91aedca1273b56,curated,30.2954,120.1609,True,preprint,preprint,venue:arxiv:main,Preprint · arXiv,valid baseline-only marker absent from current partial source snapshot
curated-map:a0e2c8aaef5e580013f7,openalex:https://openalex.org/w7117078863,AdaptPrompt: Parameter-Efficient Adaptation of VLMs for Generalizable Deepfake Detection,2025,University of Waterloo,institution:7417258b2e3d3491,curated,43.4723,-80.5449,True,preprint,preprint,venue:arxiv:main,Preprint · arXiv,valid baseline-only marker absent from current partial source snapshot
curated-map:2bdcc1ec8e3cb94e239b,openalex:https://openalex.org/w7117078863,AdaptPrompt: Parameter-Efficient Adaptation of VLMs for Generalizable Deepfake Detection,2025,Mohamed bin Zayed University of Artificial Intelligence,institution:f04b96a9716ab2f4,curated,24.4329,54.6178,True,preprint,preprint,venue:arxiv:main,Preprint · arXiv,valid baseline-only marker absent from current partial source snapshot
curated-map:1cc4455d3a5770356f72,openalex:https://openalex.org/w7117078863,AdaptPrompt: Parameter-Efficient Adaptation of VLMs for Generalizable Deepfake Detection,2025,University of Bergen,institution:b978b6dfc7b3baa0,curated,60.3862,5.3204,True,preprint,preprint,venue:arxiv:main,Preprint · arXiv,valid baseline-only marker absent from current partial source snapshot
curated-map:6fbd8fac591b653d9c92,openalex:https://openalex.org/w4387994353,AntifakePrompt: Prompt-Tuned Vision-Language Models are Fake Image Detectors,2023,National Yang Ming Chiao Tung University,institution:b99e56fd55395250,curated,24.786,120.997,True,preprint,preprint,venue:arxiv:main,Preprint · arXiv,valid baseline-only marker absent from current partial source snapshot
curated-map:cb081d4746522155c079,openalex:https://openalex.org/w4387994353,AntifakePrompt: Prompt-Tuned Vision-Language Models are Fake Image Detectors,2023,Netflix Eyeline Studios,institution:fbc0802be3266f6f,curated,34.0522,-118.2437,True,preprint,preprint,venue:arxiv:main,Preprint · arXiv,valid baseline-only marker absent from current partial source snapshot
curated-map:ae2dc63508fcb613969f,openalex:https://openalex.org/w4322760013,Benchmarking Deepart Detection,2023,Xi’an Jiaotong University,institution:afc29be68ac419be,curated,34.2467,108.9839,True,preprint,preprint,venue:arxiv:main,Preprint · arXiv,valid baseline-only marker absent from current partial source snapshot
curated-map:5bb85725f878bc480812,openalex:https://openalex.org/w4322760013,Benchmarking Deepart Detection,2023,Singapore Management University,institution:eefb779b4c760808,curated,1.2966,103.85,True,preprint,preprint,venue:arxiv:main,Preprint · arXiv,valid baseline-only marker absent from current partial source snapshot
curated-map:2fb86958dba908b69d6a,openalex:https://openalex.org/w4322760013,Benchmarking Deepart Detection,2023,University of Southampton,institution:a0c3927e4ddb3a39,curated,50.9344,-1.3958,True,preprint,preprint,venue:arxiv:main,Preprint · arXiv,valid baseline-only marker absent from current partial source snapshot
curated-map:69a07fe1a7abda7cc270,openalex:https://openalex.org/w4322760013,Benchmarking Deepart Detection,2023,Harbin Institute of Technology,institution:fe438b1c7662476f,curated,45.7469,126.632,True,preprint,preprint,venue:arxiv:main,Preprint · arXiv,valid baseline-only marker absent from current partial source snapshot
curated-map:a8d2efa3fe0d29ee0b5a,openalex:https://openalex.org/w4322760013,Benchmarking Deepart Detection,2023,Pengcheng Laboratory,institution:1ce921cf3475aa52,curated,22.5856,113.9639,True,preprint,preprint,venue:arxiv:main,Preprint · arXiv,valid baseline-only marker absent from current partial source snapshot
curated-map:938e81a48e9530c851d8,openalex:https://openalex.org/w4417529984,Code-in-the-Loop Forensics: Agentic Tool Use for Image Forgery Detection,2025,University of Science and Technology of China,institution:e721b03b6f6c172d,curated,31.8229,117.2808,True,preprint,preprint,venue:arxiv:main,Preprint · arXiv,valid baseline-only marker absent from current partial source snapshot
curated-map:4b79c43b9046c9e24260,openalex:https://openalex.org/w4417529984,Code-in-the-Loop Forensics: Agentic Tool Use for Image Forgery Detection,2025,Shanghai Innovation Institute,institution:9a0d85eff850f04a,curated,31.1376,121.4476,True,preprint,preprint,venue:arxiv:main,Preprint · arXiv,valid baseline-only marker absent from current partial source snapshot
curated-map:f4e9456467df32e96061,openalex:https://openalex.org/w4417529984,Code-in-the-Loop Forensics: Agentic Tool Use for Image Forgery Detection,2025,Shanghai Artificial Intelligence Laboratory,institution:c107a95b6cb53ac5,curated,31.1779,121.4625,True,preprint,preprint,venue:arxiv:main,Preprint · arXiv,valid baseline-only marker absent from current partial source snapshot
curated-map:23776e41e28ddf702f74,openalex:https://openalex.org/w7133363592,CTForensics: A Comprehensive Dataset and Method for AI-Generated CT Image Detection,2026,University of Chinese Academy of Sciences,institution:69309405e04976ec,curated,39.9078,116.2523,True,preprint,preprint,venue:arxiv:main,Preprint · arXiv,valid baseline-only marker absent from current partial source snapshot
curated-map:7a0230589ff154a90fbe,openalex:https://openalex.org/w7133363592,CTForensics: A Comprehensive Dataset and Method for AI-Generated CT Image Detection,2026,"Institute of Automation, Chinese Academy of Sciences",institution:966ff12833f90bb0,curated,39.9826,116.3336,True,preprint,preprint,venue:arxiv:main,Preprint · arXiv,valid baseline-only marker absent from current partial source snapshot
curated-map:4efadfdc09dbe4f1d820,openalex:https://openalex.org/w7133363592,CTForensics: A Comprehensive Dataset and Method for AI-Generated CT Image Detection,2026,"HKISI, Chinese Academy of Sciences",institution:9dd7b58a09f6962c,curated,22.4267,114.2119,True,preprint,preprint,venue:arxiv:main,Preprint · arXiv,valid baseline-only marker absent from current partial source snapshot
curated-map:a439ab8f0c9cd5ec63bb,openalex:https://openalex.org/w7133363592,CTForensics: A Comprehensive Dataset and Method for AI-Generated CT Image Detection,2026,Sangfor Technologies Inc.,institution:a86e3c911036d069,curated,22.5903,113.9608,True,preprint,preprint,venue:arxiv:main,Preprint · arXiv,valid baseline-only marker absent from current partial source snapshot
curated-map:e75b66f9c58938c47fe6,openalex:https://openalex.org/w4392737360,Data-Independent Operator: A Training-Free Artifact Representation Extractor for Generalizable Deepfake Detection,2024,Beijing Jiaotong University,institution:bf6195b78f6dc951,curated,39.959,116.348,True,preprint,preprint,venue:arxiv:main,Preprint · arXiv,valid baseline-only marker absent from current partial source snapshot
curated-map:9e60143c5ea97be8de4f,openalex:https://openalex.org/w4392737360,Data-Independent Operator: A Training-Free Artifact Representation Extractor for Generalizable Deepfake Detection,2024,"University of Nevada, Reno",institution:969d6dd2c9cf6a1e,curated,39.5442,-119.8147,True,preprint,preprint,venue:arxiv:main,Preprint · arXiv,valid baseline-only marker absent from current partial source snapshot
curated-map:aafe03f2536923c6d196,openalex:https://openalex.org/w4392737360,Data-Independent Operator: A Training-Free Artifact Representation Extractor for Generalizable Deepfake Detection,2024,"The Chinese University of Hong Kong, Shenzhen",institution:5dbb9ac6a407e079,curated,22.6867,114.2117,True,preprint,preprint,venue:arxiv:main,Preprint · arXiv,valid baseline-only marker absent from current partial source snapshot
curated-map:addf22001c187a06e962,openalex:https://openalex.org/w4389983109,DeepArt: A Benchmark to Advance Fidelity Research in AI-Generated Content,2023,Chongqing University of Posts and Telecommunications,institution:7e10613327a4e264,curated,29.5315,106.6043,True,preprint,preprint,venue:arxiv:main,Preprint · arXiv,valid baseline-only marker absent from current partial source snapshot
curated-map:6edf92cdf064648c8804,openalex:https://openalex.org/w4389983109,DeepArt: A Benchmark to Advance Fidelity Research in AI-Generated Content,2023,University of Alabama at Birmingham,institution:fde22ad658a3fdb9,curated,33.5022,-86.8092,True,preprint,preprint,venue:arxiv:main,Preprint · arXiv,valid baseline-only marker absent from current partial source snapshot
curated-map:323f89c9f4a35e868942,openalex:https://openalex.org/w4389983109,DeepArt: A Benchmark to Advance Fidelity Research in AI-Generated Content,2023,Alipurduar Government Engineering and Management College,institution:930e5c2880e11cb3,curated,26.489,89.5271,True,preprint,preprint,venue:arxiv:main,Preprint · arXiv,valid baseline-only marker absent from current partial source snapshot
curated-map:f36a29c80f3b4a13d6ba,openalex:https://openalex.org/w4393063559,Deepfake Detection without Deepfakes: Generalization via Synthetic Frequency Patterns Injection,2024,ISTI-CNR,institution:541450f1f663948c,curated,43.7196,10.4217,True,preprint,preprint,venue:arxiv:main,Preprint · arXiv,valid baseline-only marker absent from current partial source snapshot
curated-map:6af23bcdc512df57c0e3,openalex:https://openalex.org/w4393063559,Deepfake Detection without Deepfakes: Generalization via Synthetic Frequency Patterns Injection,2024,CNIT,institution:721b1fe645c5b099,curated,43.8016,11.2452,True,preprint,preprint,venue:arxiv:main,Preprint · arXiv,valid baseline-only marker absent from current partial source snapshot
curated-map:2b1b72c218f9f1e2edfb,openalex:https://openalex.org/w4393063559,Deepfake Detection without Deepfakes: Generalization via Synthetic Frequency Patterns Injection,2024,Universitas Mercatorum,institution:1afce89cd4f3571f,curated,41.8936,12.4784,True,preprint,preprint,venue:arxiv:main,Preprint · arXiv,valid baseline-only marker absent from current partial source snapshot
curated-map:95fc42c329c7e32f6f9e,openalex:https://openalex.org/w4393063559,Deepfake Detection without Deepfakes: Generalization via Synthetic Frequency Patterns Injection,2024,NVIDIA AI Technology Center Italy,institution:0b1cc69a0a28e0c1,curated,41.9028,12.4964,True,preprint,preprint,venue:arxiv:main,Preprint · arXiv,valid baseline-only marker absent from current partial source snapshot
curated-map:889b937f546820163681,openalex:https://openalex.org/w4399911107,Development of a Dual-Input Neural Model for Detecting AI-Generated Imagery,2024,University of Waterloo,institution:7417258b2e3d3491,curated,43.4723,-80.5449,True,preprint,preprint,venue:arxiv:main,Preprint · arXiv,valid baseline-only marker absent from current partial source snapshot
curated-map:37023e0bef53373444a2,openalex:https://openalex.org/w4389421609,Diffusion Noise Feature: Accurate and Fast Generated Image Detection,2023,Zhejiang University,institution:e433baf78e80004b,curated,30.3083,120.0867,True,preprint,preprint,venue:arxiv:main,Preprint · arXiv,valid baseline-only marker absent from current partial source snapshot
curated-map:46027a15f3fe7e9e95ff,openalex:https://openalex.org/w4395064829,FakeBench: Probing Explainable Fake Image Detection via Large Multimodal Models,2024,City University of Hong Kong,institution:ec71dc4340659fd9,curated,22.3374,114.173,True,preprint,preprint,venue:arxiv:main,Preprint · arXiv,valid baseline-only marker absent from current partial source snapshot
curated-map:0255d7ef7e87768c37d9,openalex:https://openalex.org/w4395064829,FakeBench: Probing Explainable Fake Image Detection via Large Multimodal Models,2024,Drexel University,institution:e0fc2ffb269489e7,curated,39.9566,-75.1899,True,preprint,preprint,venue:arxiv:main,Preprint · arXiv,valid baseline-only marker absent from current partial source snapshot
curated-map:301e8f6d16fa5893c129,openalex:https://openalex.org/w4395064829,FakeBench: Probing Explainable Fake Image Detection via Large Multimodal Models,2024,University of Campinas,institution:f4a883f8d9615a43,curated,-22.817,-47.0683,True,preprint,preprint,venue:arxiv:main,Preprint · arXiv,valid baseline-only marker absent from current partial source snapshot
curated-map:2f4cb1aa1b9b49d8d337,openalex:https://openalex.org/w4395064829,FakeBench: Probing Explainable Fake Image Detection via Large Multimodal Models,2024,Nanyang Technological University,institution:c111feb812f1a7ed,curated,1.3483,103.6831,True,preprint,preprint,venue:arxiv:main,Preprint · arXiv,valid baseline-only marker absent from current partial source snapshot
curated-map:261600b77edb12226e53,openalex:https://openalex.org/w4417056138,FakeScope: Large Multimodal Expert Model for Transparent AI-Generated Image Forensics,2025,City University of Hong Kong,institution:ec71dc4340659fd9,curated,22.3374,114.173,True,preprint,preprint,venue:arxiv:main,Preprint · arXiv,valid baseline-only marker absent from current partial source snapshot
curated-map:0a558efa4d6308136670,openalex:https://openalex.org/w4417056138,FakeScope: Large Multimodal Expert Model for Transparent AI-Generated Image Forensics,2025,Chang’an University,institution:7aae859eefe8edd1,curated,34.23445,108.95288,True,preprint,preprint,venue:arxiv:main,Preprint · arXiv,valid baseline-only marker absent from current partial source snapshot
curated-map:4e16f781d242bd1f3f97,openalex:https://openalex.org/w4417056138,FakeScope: Large Multimodal Expert Model for Transparent AI-Generated Image Forensics,2025,Sun Yat-sen University,institution:5c85faa51cc57a24,curated,23.09959,113.29251,True,preprint,preprint,venue:arxiv:main,Preprint · arXiv,valid baseline-only marker absent from current partial source snapshot
curated-map:e34a03e5accb5a53168f,openalex:https://openalex.org/w4417056138,FakeScope: Large Multimodal Expert Model for Transparent AI-Generated Image Forensics,2025,Nanyang Technological University,institution:c111feb812f1a7ed,curated,1.3483,103.6831,True,preprint,preprint,venue:arxiv:main,Preprint · arXiv,valid baseline-only marker absent from current partial source snapshot
curated-map:d34bbd6303b06e2a54d6,openalex:https://openalex.org/w4417056138,FakeScope: Large Multimodal Expert Model for Transparent AI-Generated Image Forensics,2025,University of Campinas,institution:f4a883f8d9615a43,curated,-22.817,-47.0683,True,preprint,preprint,venue:arxiv:main,Preprint · arXiv,valid baseline-only marker absent from current partial source snapshot
curated-map:f93c95109233c01d9875,openalex:https://openalex.org/w4414789480,FerretNet: Efficient Synthetic Image Detection via Local Pixel Dependencies,2025,Jinan University,institution:8632718a2c1444c6,curated,23.1335,113.3419,True,preprint,preprint,venue:arxiv:main,Preprint · arXiv,valid baseline-only marker absent from current partial source snapshot
curated-map:27f63b49aff048d68270,openalex:https://openalex.org/w4414577086,Few-Shot Class-Incremental Model Attribution Using Learnable Representation From CLIP-ViT Features,2025,Sungkyunkwan University,institution:e80b94c605da24ce,curated,37.2939,126.9757,True,preprint,preprint,venue:arxiv:main,Preprint · arXiv,valid baseline-only marker absent from current partial source snapshot
curated-map:65d639a397e11e444043,openalex:https://openalex.org/w7117537373,Fixed-Threshold Evaluation of a Hybrid CNN-ViT for AI-Generated Image Detection Across Photos and Art,2025,Indian Institute of Technology Kharagpur,institution:f0c3da144873207a,curated,22.3193,87.3095,True,preprint,preprint,venue:arxiv:main,Preprint · arXiv,valid baseline-only marker absent from current partial source snapshot
curated-map:65f1f60db9635a78af1c,openalex:https://openalex.org/w7117537373,Fixed-Threshold Evaluation of a Hybrid CNN-ViT for AI-Generated Image Detection Across Photos and Art,2025,Chittagong University of Engineering and Technology,institution:488418437bfc9b2c,curated,22.46208,91.97294,True,preprint,preprint,venue:arxiv:main,Preprint · arXiv,valid baseline-only marker absent from current partial source snapshot
curated-map:743574add8440a4bd2db,openalex:https://openalex.org/w4416610205,Fooling the Watchers: Breaking AIGC Detectors via Semantic Prompt Attacks,2025,Aarhus University,institution:b85a1a866c0c7fe8,curated,56.1685,10.2037,True,preprint,preprint,venue:arxiv:main,Preprint · arXiv,valid baseline-only marker absent from current partial source snapshot
curated-map:36b254b969fc4952c152,openalex:https://openalex.org/w4416610205,Fooling the Watchers: Breaking AIGC Detectors via Semantic Prompt Attacks,2025,China University of Mining and Technology,institution:e67012d79bb3f603,curated,34.2166,117.142,True,preprint,preprint,venue:arxiv:main,Preprint · arXiv,valid baseline-only marker absent from current partial source snapshot
curated-map:e19ad3c3739079010a07,openalex:https://openalex.org/w4417093490,ForensicHub: A Unified Benchmark &amp; Codebase for All-Domain Fake Image Detection and Localization,2025,Sichuan University,institution:4c1e9439f241e5ec,curated,30.6331,104.0819,True,preprint,preprint,venue:arxiv:main,Preprint · arXiv,valid baseline-only marker absent from current partial source snapshot
curated-map:f2983afcfbc7e8efb2fb,openalex:https://openalex.org/w4417093490,ForensicHub: A Unified Benchmark &amp; Codebase for All-Domain Fake Image Detection and Localization,2025,Ant Group,institution:5a28a1a99a417ba5,curated,30.2613,120.1042,True,preprint,preprint,venue:arxiv:main,Preprint · arXiv,valid baseline-only marker absent from current partial source snapshot
curated-map:2872bec3f4dd3044ce05,openalex:https://openalex.org/w4417093490,ForensicHub: A Unified Benchmark &amp; Codebase for All-Domain Fake Image Detection and Localization,2025,Hong Kong University of Science and Technology,institution:1f9be0c6a5d4aa0b,curated,22.3376,114.263,True,preprint,preprint,venue:arxiv:main,Preprint · arXiv,valid baseline-only marker absent from current partial source snapshot
curated-map:5a9a1fdd3e4a9c2edc63,openalex:https://openalex.org/w4417093490,ForensicHub: A Unified Benchmark &amp; Codebase for All-Domain Fake Image Detection and Localization,2025,South China University of Technology,institution:3e9b289ae248f660,curated,23.151,113.349,True,preprint,preprint,venue:arxiv:main,Preprint · arXiv,valid baseline-only marker absent from current partial source snapshot
curated-map:9ab0cde5a121c1dde5a1,openalex:https://openalex.org/w4417093490,ForensicHub: A Unified Benchmark &amp; Codebase for All-Domain Fake Image Detection and Localization,2025,University of Macao,institution:b8a4e3b25fd4a300,curated,22.13,113.5458,True,preprint,preprint,venue:arxiv:main,Preprint · arXiv,valid baseline-only marker absent from current partial source snapshot
curated-map:f4130212aaffdaf5ccaa,openalex:https://openalex.org/w4415935817,From Evidence to Verdict: An Agent-Based Forensic Framework for AI-Generated Image Detection,2025,CISPA Helmholtz Center for Information Security,institution:aea376936c88135b,curated,49.2577,7.0422,True,preprint,preprint,venue:arxiv:main,Preprint · arXiv,valid baseline-only marker absent from current partial source snapshot
curated-map:e063f71419c02a4ccb15,openalex:https://openalex.org/w4414578321,Generalizable AI-Generated Image Detection Based on Fractal Self-Similarity in the Spectrum,2025,Beihang University,institution:f336b3005794930b,curated,39.9811,116.3443,True,preprint,preprint,venue:arxiv:main,Preprint · arXiv,valid baseline-only marker absent from current partial source snapshot
curated-map:51276b13d79aa1c9659b,openalex:https://openalex.org/w4414578321,Generalizable AI-Generated Image Detection Based on Fractal Self-Similarity in the Spectrum,2025,Hebei University of Technology,institution:b83f47152ad1ec29,curated,39.228,117.061,True,preprint,preprint,venue:arxiv:main,Preprint · arXiv,valid baseline-only marker absent from current partial source snapshot
curated-map:db3b88a4a6171b2598ed,openalex:https://openalex.org/w4405254427,Take Fake as Real: Realistic-like Robust Black-box Adversarial Attack to Evade AIGC Detection,2024,Wuhan University,institution:f23b95ce92de4591,curated,30.5407,114.3603,True,preprint,preprint,venue:arxiv:main,Preprint · arXiv,valid baseline-only marker absent from current partial source snapshot
curated-map:b3655a5104d506deb734,openalex:https://openalex.org/w4385473656,Model Synthesis for Zero-Shot Model Attribution,2023,"Institute of Computing Technology, Chinese Academy of Sciences",institution:e278f75918ccf8a7,curated,39.9784,116.33,True,preprint,preprint,venue:arxiv:main,Preprint · arXiv,valid baseline-only marker absent from current partial source snapshot
curated-map:2eab488c4d405a206d68,openalex:https://openalex.org/w4385473656,Model Synthesis for Zero-Shot Model Attribution,2023,University of Sydney,institution:965434eee0b97685,curated,-33.886,151.1874,True,preprint,preprint,venue:arxiv:main,Preprint · arXiv,valid baseline-only marker absent from current partial source snapshot
curated-map:ecec50020d05754bb906,openalex:https://openalex.org/w3134567460,On Attribution of Deepfakes,2020,University of Toronto,institution:6a892bbe4ee57122,curated,43.6635,-79.3958,True,preprint,preprint,venue:arxiv:main,Preprint · arXiv,valid baseline-only marker absent from current partial source snapshot
curated-map:693a767b05f713c86d6a,openalex:https://openalex.org/w3134567460,On Attribution of Deepfakes,2020,Vector Institute,institution:dc213653c8edb0fa,curated,43.6532,-79.3832,True,preprint,preprint,venue:arxiv:main,Preprint · arXiv,valid baseline-only marker absent from current partial source snapshot
curated-map:d377aa702f3a2de33ef6,openalex:https://openalex.org/w3134567460,On Attribution of Deepfakes,2020,University of Cambridge,institution:0418834df0ffcdf2,curated,52.2053,0.1132,True,preprint,preprint,venue:arxiv:main,Preprint · arXiv,valid baseline-only marker absent from current partial source snapshot
curated-map:0f6716f87e1ff6d5ad6e,openalex:https://openalex.org/w4414827699,LoRAX: LoRA eXpandable Networks for Continual Synthetic Image Attribution,2025,MIT Lincoln Laboratory,institution:39fbdba5585bb3c4,curated,42.4597,-71.2674,True,preprint,preprint,venue:arxiv:main,Preprint · arXiv,valid baseline-only marker absent from current partial source snapshot
